{"version": 0.6, "generator": "Overpass API 0.7.62.8 e802775f", "osm3s": {"timestamp_osm_base": "2026-01-08T11:56:22Z", "copyright": "The data included in this document is from www.openstreetmap.org. The data is made available under ODbL."}, "elements": [{"type": "node", "id": 31508602, "lat": 45.4729254, "lon": 9.173654}, {"type": "node", "id": 258035689, "lat": 45.4508118, "lon": 9.2038694, "tags": {"amenity": "pub", "name": "Pogue Mahone's", "toilets:wheelchair": "no", "wheelchair": "limited"}}, {"type": "node", "id": 260349649, "lat": 45.4910506, "lon": 9.2390944, "tags": {"addr:city": "Milano", "addr:postcode": "20132", "addr:street": "Via Feltre", "amenity": "pub", "name": "Victoria's", "phone": "+39 02 36723167", "website": "https://www.victoriasclub.it/"}}, {"type": "node", "id": 269924613, "lat": 45.478435, "lon": 9.1850522, "tags": {"addr:city": "Milano", "addr:country": "IT", "addr:housenumber": "5", "addr:postcode": "20121", "addr:street": "Largo La Foppa", "amenity": "bar", "check_date": "2025-09-02", "email": "radetzkycafe@libero.it", "indoor_seating": "yes", "name": "Radetzky Caf\u00e9", "operator": "La Foppa s.r.l.", "outdoor_seating": "yes", "phone": "+39 02 6572645", "ref:vatin": "IT09240200155", "website": "https://www.radetzky.it/", "wheelchair": "no"}}, {"type": "node", "id": 269924649, "lat": 45.4799222, "lon": 9.1832687, "tags": {"addr:city": "Milano", "addr:country": "IT", "addr:housenumber": "13", "addr:postcode": "20121", "addr:street": "Via Alessandro Volta", "amenity": "pub", "check_date": "2024-11-12", "check_date:currency:XBT": "2024-09-20", "currency:XBT": "yes", "email": "info@scottduff.it", "image": "https://scottduff.it/img/esterno_ScottDuff.jpg", "internet_access": "wlan", "internet_access:fee": "customers", "internet_access:ssid": "scott_duff_EXT", "name": "Scott Duff", "opening_hours": "Mo-Su 18:00-02:00", "outdoor_seating": "yes", "payment:lightning": "yes", "payment:lightning_contactless": "no", "payment:onchain": "no", "phone": "+39 02 29002574", "ref:vatin": "IT01631310677", "website": "https://scottduff.it/", "website:menu": "https://scottduff.it/menu/", "wheelchair": "limited"}}, {"type": "node", "id": 269924846, "lat": 45.4797332, "lon": 9.1889733, "tags": {"addr:city": "Milano", "addr:housenumber": "56", "addr:street": "Via Solferino", "amenity": "pub", "name": "Baladin Milano"}}, {"type": "node", "id": 272876491, "lat": 45.4588109, "lon": 9.1707677, "tags": {"addr:city": "Milano", "addr:country": "IT", "addr:housenumber": "21", "addr:postcode": "20123", "addr:street": "Via Cesare da Sesto", "amenity": "pub", "contact:phone": "+39 02 89402662", "email": "oldfoxpubmilano@gmail.com", "name": "The Old Fox Pub", "operator": "Rustrad s.r.l.", "phone": "+39 02 8940 2622", "ref:vatin": "IT10704220150"}}, {"type": "node", "id": 272878054, "lat": 45.4674152, "lon": 9.155527, "tags": {"air_conditioning": "yes", "amenity": "fast_food", "brand": "McDonald's", "brand:wikidata": "Q38076", "brand:wikipedia": "en:McDonald's", "cuisine": "burger", "delivery": "yes", "drive_through": "no", "name": "McDonald's", "takeaway": "yes", "toilets": "yes", "wheelchair": "no"}}, {"type": "node", "id": 276030409, "lat": 45.5581613, "lon": 9.2432284}, {"type": "node", "id": 276922976, "lat": 45.5196905, "lon": 9.1483529}, {"type": "node", "id": 276922977, "lat": 45.5197081, "lon": 9.1485192}, {"type": "node", "id": 281581753, "lat": 45.4675861, "lon": 9.1520979, "tags": {"addr:city": "Milano", "addr:housenumber": "5", "addr:postcode": "20149", "addr:street": "Via Carlo Ravizza", "amenity": "fast_food", "cuisine": "piadina", "name": "Piad'Or - Piadine e non solo"}}, {"type": "node", "id": 281589713, "lat": 45.4671542, "lon": 9.159181, "tags": {"addr:city": "Milano", "addr:country": "IT", "addr:housenumber": "3", "addr:postcode": "20145", "addr:street": "Via Francesco Cherubini", "amenity": "ice_cream", "email": "info@lognomogelato.it", "name": "Lo Gnomo Gelato", "opening_hours": "Mo-Su 12:00-21:30; Sa 12:00-22:00", "operator": "Lo Gonomo Gelato", "phone": "+39 02 4818134", "ref:vatin": "IT04878380965", "short_name": "Gnomo Gelato", "website": "https://www.lognomogelato.it/"}}, {"type": "node", "id": 281589718, "lat": 45.4672712, "lon": 9.1598826, "tags": {"amenity": "fast_food", "name": "Il Panino Giusto", "wheelchair": "no"}}, {"type": "node", "id": 281593281, "lat": 45.4668877, "lon": 9.1525401, "tags": {"addr:housenumber": "33", "addr:postcode": "20149", "addr:street": "Via Marghera", "amenity": "ice_cream", "name": "Gelateria Marghera", "phone": "+39 02468641", "website": "https://www.gelateriamarghera.it/", "wheelchair": "no"}}, {"type": "node", "id": 281727031, "lat": 45.4949556, "lon": 9.1849812, "tags": {"addr:housenumber": "79", "addr:postcode": "20159", "addr:street": "Via Carlo Farini", "amenity": "fast_food", "brand": "McDonald's", "brand:wikidata": "Q38076", "brand:wikipedia": "en:McDonald's", "check_date": "2025-09-13", "contact:phone": "+39 02 69018449", "cuisine": "burger", "delivery": "yes", "indoor_seating": "yes", "name": "McDonald's", "note:it": "indirizzo riportato su scontrino:\"Via Farini 79/81\"", "operator": "EuroRistoro s.r.l.", "outdoor_seating": "no", "ref:vatin": "IT01075950194", "takeaway": "yes", "wheelchair": "yes"}}, {"type": "node", "id": 281819167, "lat": 45.4949167, "lon": 9.198145, "tags": {"amenity": "pub", "name": "Il gatto e la volpe"}}, {"type": "node", "id": 281819170, "lat": 45.4950751, "lon": 9.197087, "tags": {"amenity": "cafe"}}, {"type": "node", "id": 281819178, "lat": 45.4892417, "lon": 9.1888269, "tags": {"addr:city": "Milano", "addr:country": "IT", "addr:housenumber": "35", "addr:postcode": "20159", "addr:street": "Via Pietro Borsieri", "alt_name": "NordEst Caff\u00e9;NordEst Caf\u00e9;Nord est caf\u00e9", "amenity": "pub", "check_date": "2025-12-08", "indoor_seating": "yes", "name": "Nordest", "note": "Sullo scontrino del Nordest Caff\u00e8 c'\u00e8 scritto \"Via P. Lambertenghi 25\" per\u00f2 penso sia errato lo scontrino.", "opening_hours": "08:00 - 01:00", "outdoor_seating": "yes", "phone": "+39 02 6900 1910", "ref:vatin": "IT09432970961", "smoking": "outside", "wheelchair": "no"}}, {"type": "node", "id": 281828130, "lat": 45.5141993, "lon": 9.208342, "tags": {"addr:city": "Milano", "addr:housenumber": "12", "addr:street": "Via Nicol\u00f2 Fortiguerra", "amenity": "pub", "indoor_seating": "yes", "name": "Tempi moderni", "opening_hours": "Mo-Sa 06:00-20:00; Su 07:30-13:00", "outdoor_seating": "yes", "wheelchair": "yes"}}, {"type": "node", "id": 282314360, "lat": 45.4887935, "lon": 9.1943986, "tags": {"addr:city": "Milano", "addr:postcode": "20124", "addr:street": "Via Ippolito Rosellini", "amenity": "cafe", "check_date": "2024-10-10", "name": "Bar Nilo", "website": "http://www.barnilo.it/", "wheelchair": "limited"}}, {"type": "node", "id": 282314361, "lat": 45.4882021, "lon": 9.1953454, "tags": {"addr:city": "Milano", "addr:housenumber": "5", "addr:postcode": "20124", "addr:street": "Viale Francesco Restelli", "amenity": "cafe", "brand": "Starbucks", "brand:wikidata": "Q37158", "brand:wikipedia": "en:Starbucks", "check_date": "2025-09-17", "cuisine": "coffee_shop", "indoor_seating": "yes", "name": "Starbucks", "note:it": "l'orario sulla porta diverso da quei indicato sul sito", "official_name": "Starbucks Coffee", "opening_hours": "Mo-Fr 07:30-18:30; Sa-Su 08:00-19:00", "outdoor_seating": "yes", "takeaway": "yes", "website": "https://www.starbucks.co.uk/store-locator/59651-293868/milano-restelli", "wheelchair": "no"}}, {"type": "node", "id": 282646785, "lat": 45.4609976, "lon": 9.1528367, "tags": {"amenity": "pub", "name": "Il Tombino"}}, {"type": "node", "id": 286306966, "lat": 45.4809461, "lon": 9.2252976, "tags": {"amenity": "cafe", "level": "-1", "location": "underground"}}, {"type": "node", "id": 290993216, "lat": 45.4595392, "lon": 9.2063699, "tags": {"addr:housenumber": "16", "addr:street": "Viale Regina Margherita", "amenity": "pub", "brewery": "yes", "name": "Hop", "phone": "+39 02 39439821"}}, {"type": "node", "id": 290993805, "lat": 45.4656535, "lon": 9.2213141, "tags": {"amenity": "cafe", "name": "Caf\u00e8 Archimede", "tobacco": "yes"}}, {"type": "node", "id": 301979235, "lat": 45.4504343, "lon": 9.1692493, "tags": {"addr:city": "Milano", "addr:housenumber": "69", "addr:postcode": "20143", "addr:street": "Ripa di Porta Ticinese", "amenity": "pub", "name": "Wizard", "website": "https://thewizardpub.wordpress.com/"}}, {"type": "node", "id": 301979316, "lat": 45.4518037, "lon": 9.1776743, "tags": {"addr:city": "Milano", "addr:housenumber": "4n02", "addr:postcode": "20143", "addr:street": "Alzaia Naviglio Pavese", "amenity": "pub", "facebook": "https://www.facebook.com/BirreriaLaFontanella/", "name": "La Fontanella", "opening_hours": "20:30-02:00"}}, {"type": "node", "id": 304775595, "lat": 45.465692, "lon": 9.175656, "tags": {"addr:city": "Milano", "addr:country": "IT", "addr:housenumber": "13", "addr:postcode": "20123", "addr:street": "Via Giosu\u00e8 Carducci", "amenity": "pub", "cuisine": "italian", "email": "info@barmagenta.it", "food": "yes", "name": "Bar Magenta", "opening_hours": "Mo-Su 07:30-02:00", "outdoor_seating": "street", "phone": "+39028053808", "smoking": "outside", "website": "http://barmagenta.it/", "website:menu": "https://dishcovery.menu/app/restaurants/4ecf90248ea07eaf0fe52ab46e9545db", "wheelchair": "yes"}}, {"type": "node", "id": 309698190, "lat": 45.4866881, "lon": 9.1670869, "tags": {"addr:city": "Milano", "addr:country": "IT", "addr:housenumber": "5", "addr:postcode": "20154", "addr:street": "Via San Galdino", "amenity": "bar", "name": "Club Dec\u00f2"}}, {"type": "node", "id": 310072010, "lat": 45.4757092, "lon": 9.2233689, "tags": {"amenity": "pub", "name": "Matricola", "wheelchair": "no"}}, {"type": "node", "id": 310358000, "lat": 45.5711454, "lon": 9.1911893, "tags": {"amenity": "cafe", "name": "Bar Tabacchi La Colonna Vincente"}}, {"type": "node", "id": 311820379, "lat": 45.4502011, "lon": 9.1512688, "tags": {"addr:city": "Milano", "addr:housenumber": "9", "addr:postcode": "20146", "addr:street": "Via Leone Tolstoi", "amenity": "cafe", "name": "Blanco Caf\u00e9", "website": "https://www.blancocaffemilano.com/"}}, {"type": "node", "id": 313056093, "lat": 45.4802145, "lon": 9.201232, "tags": {"addr:city": "Milano", "addr:country": "IT", "addr:housenumber": "5", "addr:postcode": "20124", "addr:street": "Via Carlo Tenca", "amenity": "cafe", "check_date:opening_hours": "2023-02-14", "name": "Gelsomina", "opening_hours:signed": "no", "phone": "+39 02 66713 696"}}, {"type": "node", "id": 313056102, "lat": 45.4801747, "lon": 9.2015922, "tags": {"amenity": "pub", "name": "Sohos"}}, {"type": "node", "id": 313056107, "lat": 45.4803007, "lon": 9.2016606, "tags": {"amenity": "pub", "name": "Outback caf\u00e9"}}, {"type": "node", "id": 313056151, "lat": 45.481866, "lon": 9.203625, "tags": {"addr:city": "Milano", "addr:country": "IT", "addr:housenumber": "22", "addr:postcode": "20124", "addr:street": "Via Ruggero Boscovich", "amenity": "cafe", "name": "Bar Baldassarre", "wheelchair": "limited"}}, {"type": "node", "id": 313460019, "lat": 45.461174, "lon": 9.155149, "tags": {"amenity": "cafe"}}, {"type": "node", "id": 316123729, "lat": 45.4446001, "lon": 9.1418269, "tags": {"addr:city": "Milano", "addr:housenumber": "83", "addr:postcode": "20143", "addr:street": "Via Lodovico il Moro", "amenity": "pub", "name": "Camarillo Brillo", "website": "https://camarillobrillo.business.site/"}}, {"type": "node", "id": 316179093, "lat": 45.4469146, "lon": 9.1612503, "tags": {"addr:city": "Milano", "addr:housenumber": "13", "addr:postcode": "20143", "addr:street": "Via Carlo D'Adda", "amenity": "cafe", "name": "Laumge Cafe", "outdoor_seating": "yes"}}, {"type": "node", "id": 316841000, "lat": 45.4733613, "lon": 9.2295352, "tags": {"amenity": "bar", "created_by": "Potlatch 0.10f", "name": "Bar Venere"}}, {"type": "node", "id": 317341599, "lat": 45.557956, "lon": 9.1797334, "tags": {"addr:city": "Cusano Milanino", "addr:country": "IT", "addr:housenumber": "41", "addr:street": "Via Alessandrina", "amenity": "fast_food", "name": "La Villetta Bar Paninoteca", "opening_hours": "Mo-Sa 06:30-19:30"}}, {"type": "node", "id": 317445419, "lat": 45.5548214, "lon": 9.1738745, "tags": {"amenity": "cafe", "name": "Bar Mir\u00f2"}}, {"type": "node", "id": 317445421, "lat": 45.5546997, "lon": 9.1736242, "tags": {"amenity": "fast_food", "name": "Dal Brontolone Pizzeria"}}, {"type": "node", "id": 318431242, "lat": 45.4451996, "lon": 9.1446995, "tags": {"addr:city": "Milano", "addr:housenumber": "55", "addr:postcode": "20143", "addr:street": "Via Lodovico il Moro", "amenity": "pub", "name": "Tin Whistle", "website": "https://www.facebook.com/tinwhistlemilano/"}}, {"type": "node", "id": 320363956, "lat": 45.4547927, "lon": 9.2164769, "tags": {"amenity": "pub", "created_by": "Potlatch 0.10f", "name": "Batik"}}, {"type": "node", "id": 320623012, "lat": 45.4476263, "lon": 9.15615, "tags": {"amenity": "cafe"}}, {"type": "node", "id": 322100221, "lat": 45.5522153, "lon": 9.1840031, "tags": {"addr:city": "Cusano Milanino", "addr:country": "IT", "addr:housenumber": "17", "addr:postcode": "20095", "addr:street": "Viale Enrico Pedretti", "amenity": "fast_food", "cuisine": "pizza", "name": "Sacicce & Friarielli", "takeaway": "only"}}, {"type": "node", "id": 322100233, "lat": 45.5524172, "lon": 9.1840354, "tags": {"amenity": "cafe", "name": "Beach Bar"}}, {"type": "node", "id": 322939546, "lat": 45.5539641, "lon": 9.1974483, "tags": {"addr:city": "Cusano Milanino", "addr:country": "IT", "addr:housenumber": "69", "addr:postcode": "20095", "addr:street": "Viale Cooperazione", "amenity": "cafe", "description": "Tabacchi riv.11; Lotto ric. 1906"}}, {"type": "node", "id": 322979841, "lat": 45.5515272, "lon": 9.186612, "tags": {"amenity": "cafe", "name": "Bar Motta"}}, {"type": "node", "id": 324173416, "lat": 45.5504648, "lon": 9.1813128, "tags": {"addr:city": "Cusano Milanino", "addr:housenumber": "18", "addr:postcode": "20095", "addr:street": "Viale Giacomo Matteotti", "amenity": "cafe", "cuisine": "coffee", "name": "Prestige"}}, {"type": "node", "id": 324182265, "lat": 45.5499241, "lon": 9.1776235, "tags": {"amenity": "cafe", "name": "Bar Gelateria Aquilone"}}, {"type": "node", "id": 324191045, "lat": 45.5484668, "lon": 9.1759075, "tags": {"addr:city": "Cusano Milanino", "addr:country": "IT", "addr:district": "Cusano", "addr:housenumber": "9", "addr:postcode": "20095", "addr:street": "Via Omodei", "amenity": "pub", "name": "Place's Pub"}}, {"type": "node", "id": 324372476, "lat": 45.5495556, "lon": 9.178434, "tags": {"amenity": "cafe", "name": "Circolo ACLI"}}, {"type": "node", "id": 324372479, "lat": 45.5498426, "lon": 9.1785917, "tags": {"amenity": "cafe", "description": "Caffetteria drinks cocktails rusticheria", "name": "Size Cafe"}}, {"type": "node", "id": 324374873, "lat": 45.5499283, "lon": 9.1793647, "tags": {"amenity": "cafe", "name": "Pour Parler Cusano"}}, {"type": "node", "id": 324376552, "lat": 45.5501962, "lon": 9.1815289, "tags": {"amenity": "cafe", "name": "Bar Blanche"}}, {"type": "node", "id": 324381686, "lat": 45.5504453, "lon": 9.1832763, "tags": {"amenity": "cafe", "name": "Cirio", "shop": "pastry"}}, {"type": "node", "id": 324381700, "lat": 45.5506314, "lon": 9.1842927, "tags": {"amenity": "cafe", "name": "Bar Cristallo"}}, {"type": "node", "id": 324396166, "lat": 45.5506565, "lon": 9.1843189, "tags": {"addr:city": "Cusano Milanino", "addr:country": "IT", "addr:housenumber": "7a", "addr:postcode": "20095", "addr:street": "Viale Giacomo Matteotti", "amenity": "ice_cream", "name": "Gelateria Primula", "operator": "Reka snc", "phone": "+39 02 6197350"}}, {"type": "node", "id": 332241696, "lat": 45.551859, "lon": 9.1748893, "tags": {"amenity": "cafe", "name": "Locanda Caf\u00e8"}}, {"type": "node", "id": 332508983, "lat": 45.5500989, "lon": 9.1771053, "tags": {"amenity": "cafe", "name": "Bar Jouse"}}, {"type": "node", "id": 332791102, "lat": 45.5505683, "lon": 9.1810532, "tags": {"amenity": "cafe", "name": "Caff\u00e8 Mondogel"}}, {"type": "node", "id": 332798089, "lat": 45.5520238, "lon": 9.1839908, "tags": {"amenity": "cafe", "name": "Bloom Bar"}}, {"type": "node", "id": 333755292, "lat": 45.4696964, "lon": 9.2280645, "tags": {"amenity": "pub", "name": "Murphy's Pub", "wheelchair": "no"}}, {"type": "node", "id": 333755293, "lat": 45.470509, "lon": 9.2268801, "tags": {"addr:city": "Milano", "addr:housenumber": "13", "addr:postcode": "20133", "addr:street": "Piazza Francesco Guardi", "amenity": "pub", "name": "Le Coq"}}, {"type": "node", "id": 340096546, "lat": 45.4887512, "lon": 9.187111, "tags": {"addr:city": "Milano", "addr:housenumber": "3", "addr:postcode": "20159", "addr:street": "Via Antonio Pollaiuolo", "amenity": "pub", "name": "Frida", "opening_hours": "Mo-Fr 10:00-15:00,18:00-02:00; Sa 16:00-02:00; Su 12:00-01:00", "phone": "+39 02 680260", "smoking": "outside", "website": "https://www.fridaisola.it/", "wheelchair": "limited"}}, {"type": "node", "id": 343290835, "lat": 45.5004061, "lon": 9.1307473}, {"type": "node", "id": 343290836, "lat": 45.5004202, "lon": 9.1309212}, {"type": "node", "id": 343578537, "lat": 45.5500273, "lon": 9.1949706, "tags": {"addr:city": "Cusano Milanino", "addr:country": "IT", "addr:housenumber": "20", "addr:postcode": "20095", "addr:street": "Viale Margherita", "amenity": "ice_cream", "brand": "crema & cioccolato", "description": "gelateria"}}, {"type": "node", "id": 345361912, "lat": 45.4603367, "lon": 9.1551443, "tags": {"amenity": "cafe", "name": "Smile"}}, {"type": "node", "id": 345361915, "lat": 45.4596306, "lon": 9.1550624, "tags": {"amenity": "cafe"}}, {"type": "node", "id": 345361923, "lat": 45.4590954, "lon": 9.1545367, "tags": {"amenity": "cafe", "name": "Washington 76"}}, {"type": "node", "id": 345599465, "lat": 45.4587087, "lon": 9.2061643, "tags": {"amenity": "pub", "name": "Mom"}}, {"type": "node", "id": 347459034, "lat": 45.4488056, "lon": 9.1624745, "tags": {"addr:city": "Milano", "addr:housenumber": "1", "addr:postcode": "20143", "addr:street": "Via Eugenio Villoresi", "amenity": "ice_cream", "name": "Na 'Ranita", "opening_hours": "Mo-Fr 12:00-24:00, Sa,Su 10:00-24:00", "panoramax": "b101bfca-dedf-4801-9b44-5d26f7f9235b", "website": "https://www.naranita.com/"}}, {"type": "node", "id": 347459042, "lat": 45.4489424, "lon": 9.1623861, "tags": {"addr:city": "Milano", "addr:housenumber": "103", "addr:postcode": "20143", "addr:street": "Ripa di Porta Ticinese", "amenity": "cafe", "name": "Roxy Bar"}}, {"type": "node", "id": 350158405, "lat": 45.5468511, "lon": 9.1905884, "tags": {"amenity": "fast_food", "cuisine": "pizza;kebab", "description": "pizza d'asporto, doner kebab, forno a legna", "name": "Pizzeria Primavera", "takeaway": "only"}}, {"type": "node", "id": 350158543, "lat": 45.5466661, "lon": 9.190576, "tags": {"amenity": "cafe", "description": "bar tabacchi, articoli per fumatori, tavola fredda", "name": "Elenoire & Giusy", "tobacco": "yes"}}, {"type": "node", "id": 351314706, "lat": 45.4840812, "lon": 9.2047388, "tags": {"addr:city": "Milano", "addr:postcode": "20124", "addr:street": "Piazza Duca d'Aosta", "amenity": "fast_food", "brand": "McDonald's", "brand:wikidata": "Q38076", "brand:wikipedia": "en:McDonald's", "cuisine": "burger", "internet_access": "wlan", "name": "McDonald's", "opening_hours": "Su-Th 07:00-01:00; Fr-Sa 07:00-02:00", "ref:vatin": "IT11551400150", "takeaway": "yes", "toilets:wheelchair": "yes", "website": "https://www.mcdonalds.it/ristorante/lombardia/milano/milano-centrale-2", "wheelchair": "yes"}}, {"type": "node", "id": 351965308, "lat": 45.5484141, "lon": 9.1858929, "tags": {"amenity": "cafe", "name": "Bar caffetteria Marin"}}, {"type": "node", "id": 351967907, "lat": 45.5473952, "lon": 9.1859343, "tags": {"amenity": "cafe", "name": "Los Locos Caf\u00e8"}}, {"type": "node", "id": 352869731, "lat": 45.5464816, "lon": 9.1769783, "tags": {"addr:city": "Cusano Milanino", "addr:housenumber": "59", "addr:postcode": "20095", "addr:street": "Viale Guglielmo Marconi", "amenity": "cafe", "name": "Brambilla Pasticceria", "shop": "pastry", "short_name": "Brambilla"}}, {"type": "node", "id": 353006233, "lat": 45.5470205, "lon": 9.180094, "tags": {"amenity": "cafe", "name": "Bar Boomerang"}}, {"type": "node", "id": 353006235, "lat": 45.5470642, "lon": 9.1803193, "tags": {"amenity": "fast_food", "cuisine": "pizza;kebab", "name": "Pizza e Kebab"}}, {"type": "node", "id": 353116860, "lat": 45.5477844, "lon": 9.1835298, "tags": {"amenity": "cafe", "name": "Bar Enoteca"}}, {"type": "node", "id": 353116871, "lat": 45.5478654, "lon": 9.1851665, "tags": {"amenity": "cafe", "name": "Bar Tabacchi Ca' Bianca"}}, {"type": "node", "id": 354956366, "lat": 45.4065559, "lon": 9.0368993, "tags": {"amenity": "ice_cream", "name": "Ai portici"}}, {"type": "node", "id": 355037298, "lat": 45.5506831, "lon": 9.1863171, "tags": {"addr:city": "Cusano Milanino", "addr:country": "IT", "addr:housenumber": "24", "addr:postcode": "20095", "addr:street": "Via Carlo Sormani", "amenity": "cafe", "name": "Kings Caf\u00e8"}}, {"type": "node", "id": 355052294, "lat": 45.5551437, "lon": 9.185958, "tags": {"amenity": "cafe", "description": "caffetteria bar", "name": "Bar Sangiorgi"}}, {"type": "node", "id": 355052649, "lat": 45.5524011, "lon": 9.1858968, "tags": {"amenity": "cafe", "name": "Sormani 57"}}, {"type": "node", "id": 355052656, "lat": 45.5518373, "lon": 9.1859476, "tags": {"addr:city": "Cusano Milanino", "addr:country": "IT", "addr:housenumber": "1b", "addr:postcode": "20095", "addr:street": "Viale Enrico Pedretti", "amenity": "fast_food", "cuisine": "pizza", "description": "Pizzeria d'asporto, forno a legna", "name": "Pizzeria San Pietro", "opening_hours": "Mo-Su 10:30-15:30, 17:30-24:00", "phone": "+39 02 66401039", "toilets:wheelchair": "no", "wheelchair": "limited"}}, {"type": "node", "id": 355057406, "lat": 45.5511946, "lon": 9.1863198, "tags": {"amenity": "cafe", "description": "aperitivi, tavola fredda, caffetteria", "name": "Bar 28"}}, {"type": "node", "id": 356049496, "lat": 45.5492054, "lon": 9.1843992, "tags": {"amenity": "cafe"}}, {"type": "node", "id": 361525514, "lat": 45.5481879, "lon": 9.1758854, "tags": {"addr:city": "Cusano Milanino", "addr:country": "IT", "addr:housenumber": "1", "addr:postcode": "20095", "addr:street": "Via Alessandro Manzoni", "amenity": "fast_food", "cuisine": "kebab;pizza", "name": "Mister Pizza", "phone": "+39 02 61359421", "takeaway": "only"}}, {"type": "node", "id": 366585705, "lat": 45.5549902, "lon": 9.2028293, "tags": {"amenity": "cafe", "name": "Bar la Passeggiata"}}, {"type": "node", "id": 367716585, "lat": 45.5550266, "lon": 9.2030415, "tags": {"addr:city": "Cinisello Balsamo", "addr:country": "IT", "addr:housenumber": "171", "addr:postcode": "20092", "addr:street": "Via Venticinque Aprile", "amenity": "fast_food", "cuisine": "pizza;kebab", "name": "La Sfinge", "opening_hours": "Mo-Sa 10:00-14:00,18:00-23:00; Su 18:00-23:00", "phone": "+39 02 6123841"}}, {"type": "node", "id": 367907153, "lat": 45.5561768, "lon": 9.207315, "tags": {"amenity": "ice_cream", "name": "Pasticceria Gelateria Domenica", "shop": "confectionery"}}, {"type": "node", "id": 367915948, "lat": 45.557569, "lon": 9.2114113, "tags": {"amenity": "ice_cream", "name": "La Bottega del Gelato"}}, {"type": "node", "id": 367915958, "lat": 45.5575905, "lon": 9.2114884, "tags": {"amenity": "fast_food", "cuisine": "pizza", "name": "Al Vesuvio"}}, {"type": "node", "id": 368025486, "lat": 45.5594002, "lon": 9.2121612, "tags": {"amenity": "cafe", "name": "Bar Mangia e Bevi"}}, {"type": "node", "id": 369609730, "lat": 45.5541814, "lon": 9.2000641, "tags": {"amenity": "ice_cream", "name": "Tuttogelato"}}, {"type": "node", "id": 370260488, "lat": 45.536514, "lon": 9.1980977, "tags": {"amenity": "pub", "name": "Officina della Birra"}}, {"type": "node", "id": 370492015, "lat": 45.4431787, "lon": 9.1161113, "tags": {"alt_name": "Kentucky Fried Chicken", "amenity": "fast_food", "brand": "KFC", "brand:wikidata": "Q524757", "cuisine": "chicken", "name": "KFC", "takeaway": "yes"}}, {"type": "node", "id": 374411346, "lat": 45.4790873, "lon": 9.1841339, "tags": {"addr:city": "Milano", "addr:country": "IT", "addr:housenumber": "4", "addr:postcode": "20121", "addr:street": "Via Alessandro Volta", "amenity": "pub", "name": "The Manhattan", "wheelchair": "no"}}, {"type": "node", "id": 380370490, "lat": 45.4427809, "lon": 9.1518028, "tags": {"amenity": "nightclub", "name": "BiTTe"}}, {"type": "node", "id": 392260544, "lat": 45.4894039, "lon": 9.1677301, "tags": {"addr:housenumber": "28", "addr:postcode": "20155", "addr:street": "Via Giuseppe Govone", "alt_name": "Irish Pub Mulligan's", "amenity": "pub", "contact:facebook": "https://www.facebook.com/www.mulliganspub.it", "contact:instagram": "https://www.instagram.com/mulligans_pub_milano_official/", "name": "Mulligan's", "opening_hours": "Mo-Sa 18:00-24:00; Tu-Su 24:00-01:00", "operator": "Trattoria La Candela Snc", "phone": "+39 02 09974886", "website": "https://mulliganspub.it/"}}, {"type": "node", "id": 392260637, "lat": 45.4890802, "lon": 9.1675217, "tags": {"amenity": "pub", "name": "The Saints and the Scholars", "website": "https://www.thesaintspub.it/"}}, {"type": "node", "id": 401247695, "lat": 45.4764641, "lon": 9.2310974}, {"type": "node", "id": 401247696, "lat": 45.4764637, "lon": 9.230957}, {"type": "node", "id": 401247701, "lat": 45.4765874, "lon": 9.2310967}, {"type": "node", "id": 408781426, "lat": 45.4474586, "lon": 9.1553746, "tags": {"addr:city": "Milano", "addr:housenumber": "3", "addr:postcode": "20143", "addr:street": "Via Lodovico il Moro", "amenity": "pub", "name": "Woodstock", "website": "https://www.qodeup.com/woodstock"}}, {"type": "node", "id": 411816864, "lat": 45.4802593, "lon": 9.1286846, "tags": {"amenity": "pub", "name": "RT HOLL"}}, {"type": "node", "id": 412210834, "lat": 45.4514997, "lon": 9.2027994, "tags": {"addr:city": "Milano", "addr:country": "IT", "addr:housenumber": "38", "addr:postcode": "20135", "addr:street": "Viale Sabotino", "amenity": "fast_food", "brand": "McDonald's", "brand:wikidata": "Q38076", "brand:wikipedia": "en:McDonald's", "check_date": "2024-05-22", "cuisine": "burger", "name": "McDonald's", "operator": "B-FOOD S.r.l.", "ref:vatin": "IT09980150966", "takeaway": "yes", "wheelchair": "limited"}}, {"type": "node", "id": 413453163, "lat": 45.524925, "lon": 9.2810819, "tags": {"amenity": "pub"}}, {"type": "node", "id": 413621600, "lat": 45.5224898, "lon": 9.2742968, "tags": {"amenity": "bar", "indoor_seating": "no", "name": "Chiringuito", "outdoor_seating": "yes"}}, {"type": "node", "id": 418360920, "lat": 45.446903, "lon": 9.1805976, "tags": {"addr:city": "Milano", "addr:housenumber": "7", "addr:postcode": "20136", "addr:street": "Via Francesco Brioschi", "amenity": "pub", "brewery": "Tennents;Kilkenny;Guinness", "kitchen": "regional;hamburger", "motorcycle:theme": "yes", "name": "Blues Bikers Pub", "opening_hours": "Tu-Su 19:00-02:00; Mo off", "opening_hours:kitchen": "Tu-Su 19:30-01:30; Mo off", "website": "http://www.bluesbikerspub.com"}}, {"type": "node", "id": 418368446, "lat": 45.4643606, "lon": 9.1884032, "tags": {"addr:city": "Milano", "addr:country": "IT", "addr:housenumber": "17", "addr:postcode": "20123", "addr:street": "Piazza del Duomo", "amenity": "fast_food", "brand": "McDonald's", "brand:wikidata": "Q38076", "brand:wikipedia": "en:McDonald's", "cuisine": "burger", "name": "McDonald's", "operator": "McDonald's Development italia LLC", "ref:vatin": "IT09499510155", "takeaway": "yes", "wheelchair": "yes"}}, {"type": "node", "id": 418368450, "lat": 45.4642885, "lon": 9.1883955, "tags": {"amenity": "ice_cream"}}, {"type": "node", "id": 425069655, "lat": 45.4816803, "lon": 9.1817547}, {"type": "node", "id": 425069657, "lat": 45.4817356, "lon": 9.1818745}, {"type": "node", "id": 425069659, "lat": 45.4818557, "lon": 9.1817733}, {"type": "node", "id": 425069661, "lat": 45.4818177, "lon": 9.1816764}, {"type": "node", "id": 426744267, "lat": 45.5018694, "lon": 9.2867504}, {"type": "node", "id": 428786103, "lat": 45.4572103, "lon": 9.1544083, "tags": {"amenity": "cafe", "name": "Max's"}}, {"type": "node", "id": 429222635, "lat": 45.4473595, "lon": 9.1559704, "tags": {"addr:city": "Milano", "addr:country": "IT", "addr:housenumber": "1", "addr:street": "Via Andrea Ponti", "amenity": "cafe", "name": "Giuliano Suardi", "wifi": "no"}}, {"type": "node", "id": 429421285, "lat": 45.4861797, "lon": 9.2266105, "tags": {"amenity": "cafe", "cuisine": "italian", "name": "Ebony"}}, {"type": "node", "id": 429595357, "lat": 45.4725467, "lon": 9.228593, "tags": {"addr:city": "Milano", "addr:housenumber": "36", "addr:postcode": "20133", "addr:street": "Via Moretto Da Brescia", "amenity": "bar", "contact:facebook": "unionclubmilano", "contact:phone": "+39 02 70009543", "contact:tripadvisor": "http://www.tripadvisor.com/5616190", "contact:yelp": "http://www.yelp.com/biz/union-club-milano", "email": "unionclub@hotmail.it", "indoor_seating": "yes", "name": "Union Club", "official_name": "Union Club", "opening_hours": "Mo 08:00-02:00; Tu-Fr 10:30-02:00; Sa-Su 18:30-02:00; May-Sep: Su off", "outdoor_seating": "yes", "payment:credit_cards": "yes", "payment:debit_cards": "yes", "smoking": "no", "start_date": "2000-08", "wheelchair": "yes"}}, {"type": "node", "id": 429595375, "lat": 45.4727692, "lon": 9.2295732, "tags": {"addr:city": "Milano", "addr:housenumber": "31", "addr:postcode": "20133", "addr:street": "Via Moretto Da Brescia", "amenity": "bar", "check_date:opening_hours": "2023-09-05", "contact:phone": "+39 02 70002900", "name": "Bar Plaza", "opening_hours": "Mo-Su 06:30-22:00", "operator": "Liao Kongfu", "outdoor_seating": "yes", "ref:vatin": "IT08060180968", "smoking": "outside"}}, {"type": "node", "id": 439203962, "lat": 45.4486383, "lon": 9.2030362, "tags": {"amenity": "bar", "name": "Bar Crema"}}, {"type": "node", "id": 439203963, "lat": 45.4488021, "lon": 9.1976118, "tags": {"amenity": "bar", "name": "Urban Wave"}}, {"type": "node", "id": 439203964, "lat": 45.4489386, "lon": 9.2023167, "tags": {"amenity": "cafe", "name": "Art Rock Caf\u00e8", "website": "https://artrockcafe.eatbu.com/"}}, {"type": "node", "id": 441072696, "lat": 45.45042, "lon": 9.2891144}, {"type": "node", "id": 441072698, "lat": 45.4503317, "lon": 9.2893407}, {"type": "node", "id": 441072700, "lat": 45.4504704, "lon": 9.2894506}, {"type": "node", "id": 441072702, "lat": 45.4505586, "lon": 9.2892243}, {"type": "node", "id": 442571790, "lat": 45.4501406, "lon": 9.2028227, "tags": {"addr:city": "Milano", "addr:country": "IT", "addr:housenumber": "7", "addr:postcode": "20135", "addr:street": "Via Crema", "amenity": "bar", "check_date": "2024-05-22", "indoor_seating": "yes", "name": "Next", "outdoor_seating": "yes", "phone": "+39 02 32960094"}}, {"type": "node", "id": 452491618, "lat": 45.4392393, "lon": 9.1553198, "tags": {"addr:city": "Milano", "addr:housenumber": "1", "addr:postcode": "20143", "addr:street": "Via Modica", "amenity": "cafe", "name": "Bar 2 Ruote"}}, {"type": "node", "id": 452491619, "lat": 45.4420621, "lon": 9.1550458, "tags": {"addr:city": "Milano", "addr:housenumber": "25", "addr:postcode": "20143", "addr:street": "Via Ambrogio Binda", "amenity": "cafe", "name": "Gocce di caff\u00e8"}}, {"type": "node", "id": 452495780, "lat": 45.439133, "lon": 9.1553019, "tags": {"addr:city": "Milano", "addr:housenumber": "1", "addr:postcode": "20143", "addr:street": "Via Modica", "amenity": "fast_food", "cuisine": "pizza", "delivery": "yes", "name": "Il Mago", "takeaway": "yes"}}, {"type": "node", "id": 452817993, "lat": 45.537181, "lon": 9.2226721, "tags": {"addr:city": "Sesto San Giovanni", "addr:country": "IT", "addr:housenumber": "77", "addr:street": "Via Saint Denis", "amenity": "cafe", "name": "Bar 77"}}, {"type": "node", "id": 454733599, "lat": 45.493857, "lon": 9.2057637, "tags": {"amenity": "ice_cream", "name": "Prossima fermata", "opening_hours": "Mo-Sa 12:00-23:00; Su 11:00-23:00; We off"}}, {"type": "node", "id": 456588927, "lat": 45.5377867, "lon": 9.2229419, "tags": {"addr:city": "Sesto San Giovanni", "addr:country": "IT", "addr:housenumber": "102", "addr:street": "Via Saint Denis", "amenity": "cafe", "name": "circolo ARCI Nuova Torretta"}}, {"type": "node", "id": 472290659, "lat": 45.4788704, "lon": 9.2031626, "tags": {"addr:housenumber": "23", "addr:street": "Via Felice Casati", "amenity": "cafe", "contact:phone": "+39 345 507 3339", "cuisine": "coffee_shop;tea", "email": "wsitninticeh@hotmail.com", "name": "Pucat\u00e8 - Bubble Tea", "opening_hours": "Mo-Su 12:30-20:00", "operator": "Jialong S.n.c.", "ref:vatin": "IT05395740961", "website": "https://www.facebook.com/pucatemilano/"}}, {"type": "node", "id": 473137942, "lat": 45.4837931, "lon": 9.2145075}, {"type": "node", "id": 477275304, "lat": 45.4421968, "lon": 9.1832848, "tags": {"amenity": "bar", "name": "Pezzotti Bar"}}, {"type": "node", "id": 477277588, "lat": 45.4393705, "lon": 9.1830997, "tags": {"amenity": "cafe"}}, {"type": "node", "id": 477278894, "lat": 45.4439553, "lon": 9.1824684, "tags": {"addr:city": "Milano", "addr:housenumber": "48", "addr:postcode": "20141", "addr:street": "Viale Tibaldi", "amenity": "cafe", "facebook": "https://www.facebook.com/caffe48/", "name": "Caff\u00e8 48", "operator": "Crazy Bar Snc di Carozza Luca e Biazzo Andrea", "outdoor_seating": "no"}}, {"type": "node", "id": 478788362, "lat": 45.4453883, "lon": 9.182297, "tags": {"amenity": "cafe"}}, {"type": "node", "id": 499514726, "lat": 45.4741351, "lon": 9.2056277}, {"type": "node", "id": 499514727, "lat": 45.4741014, "lon": 9.205698}, {"type": "node", "id": 499514728, "lat": 45.4741943, "lon": 9.2056868}, {"type": "node", "id": 499514729, "lat": 45.4741513, "lon": 9.2057588}, {"type": "node", "id": 506110094, "lat": 45.4388678, "lon": 9.1836034, "tags": {"addr:city": "Milano", "addr:housenumber": "55", "addr:postcode": "20141", "addr:street": "Via Giovanni Pezzotti", "amenity": "bar", "name": "Bar Lord Byron", "operator": "Pezzotti 55 S.N.C. di Ye Xinlin & c.", "phone": "+390236582100", "ref:vatin": "IT09965380968"}}, {"type": "node", "id": 506111041, "lat": 45.4418867, "lon": 9.1809252, "tags": {"amenity": "cafe"}}, {"type": "node", "id": 506111332, "lat": 45.4429375, "lon": 9.179059, "tags": {"amenity": "cafe", "name": "Niky Bar", "tobacco": "yes"}}, {"type": "node", "id": 506111534, "lat": 45.4438093, "lon": 9.1791797, "tags": {"addr:city": "Milano", "addr:country": "IT", "addr:housenumber": "17", "addr:street": "Via Giuseppe Meda", "amenity": "fast_food", "cuisine": "kebab", "name": "Pasa Doner Kebap"}}, {"type": "node", "id": 506113240, "lat": 45.4468527, "lon": 9.1796332, "tags": {"amenity": "fast_food", "name": "Moncib\u00e8"}}, {"type": "node", "id": 506113634, "lat": 45.4472205, "lon": 9.1796901, "tags": {"amenity": "cafe", "name": "Isola Bar"}}, {"type": "node", "id": 506114455, "lat": 45.4507226, "lon": 9.1901777, "tags": {"addr:housenumber": "24", "addr:postcode": "20136", "addr:street": "Viale Bligny", "amenity": "bar", "name": "Dahlia Lab", "operator": "Dalia srl"}}, {"type": "node", "id": 506114631, "lat": 45.4512102, "lon": 9.1895458, "tags": {"amenity": "pub", "name": "Maravea"}}, {"type": "node", "id": 506114650, "lat": 45.4510442, "lon": 9.1873344, "tags": {"amenity": "bar", "name": "Taxi Blues"}}, {"type": "node", "id": 509593417, "lat": 45.4663111, "lon": 9.1282704, "tags": {"amenity": "bar", "name": "Bar Baffo"}}, {"type": "node", "id": 509593434, "lat": 45.4660495, "lon": 9.127817, "tags": {"amenity": "bar", "name": "Bar Plaza", "phone": "+390236530238"}}, {"type": "node", "id": 524320493, "lat": 45.4857051, "lon": 9.2315149, "tags": {"addr:city": "Milano", "addr:housenumber": "5", "addr:postcode": "20131", "addr:street": "Via Privata Adelchi", "amenity": "pub", "brewery": "Draft", "indoor_seating": "yes", "microbrewery": "yes", "name": "Birrificio Lambrate", "opening_hours": "Mo 00:00-02:30; Tu 18:00-24:00; We-Su 00:00-02:30,18:00-24:00", "outdoor_seating": "no", "phone": "+39 02 70638678", "smoking": "no", "website": "https://www.birrificiolambrate.com/", "wheelchair": "no", "wikidata": "Q24702775", "wikimedia_commons": "Category:Birrificio Lambrate", "wikipedia": "en:Birrificio Lambrate"}}, {"type": "node", "id": 528848408, "lat": 45.4564846, "lon": 9.1707023, "tags": {"addr:city": "Milano", "addr:country": "IT", "addr:housenumber": "59", "addr:postcode": "20144", "addr:street": "Viale Coni Zugna", "amenity": "pub", "brewery": "various", "mobile": "+393925801075", "name": "Al Confine"}}, {"type": "node", "id": 529016780, "lat": 45.4589965, "lon": 9.1824539, "tags": {"addr:city": "Milano", "addr:housenumber": "16", "addr:postcode": "20123", "addr:street": "Via Papa Gregorio Quattordicesimo", "amenity": "bar", "check_date": "2025-09-04", "name": "Yguana", "phone": "+39 02 8940 4195"}}, {"type": "node", "id": 534340615, "lat": 45.4736675, "lon": 9.2342317, "tags": {"addr:city": "Milano", "addr:housenumber": "29", "addr:postcode": "20133", "addr:street": "Via Gaetano Strambio", "amenity": "pub", "name": "Au Vieux Strasbourg", "opening_hours": "Mo-Sa 07:00-02:00; Su 18:00-00:00", "phone": "+39 02 70630062"}}, {"type": "node", "id": 534911886, "lat": 45.4531337, "lon": 9.1804395, "tags": {"addr:city": "Milano", "addr:housenumber": "2", "addr:postcode": "20122", "addr:street": "Piazza Sant'Eustorgio", "amenity": "fast_food", "brand": "McDonald's", "brand:wikidata": "Q38076", "brand:wikipedia": "en:McDonald's", "cuisine": "burger", "drive_through": "no", "name": "McDonald's", "opening_hours": "Mo 16:00-03:00; Tu-Th 08:00-03:00; Fr-Sa 00:00-24:00; Su 08:00-20:00", "operator": "Medea s.r.l.", "phone": "+390289418146", "ref:vatin": "IT12964940154", "takeaway": "yes", "toilets": "yes", "website": "https://www.mcdonalds.it/ristorante/lombardia/milano/milano-xxiv-maggio"}}, {"type": "node", "id": 538903511, "lat": 45.4489995, "lon": 9.17756, "tags": {"amenity": "pub", "check_date": "2023-04-16", "name": "Bricks", "opening_hours": "Mo-Fr 12:00-14:30, 17:00-02:00, Sa-Su 17:00-03:00", "phone": "+39 02 84080172", "wheelchair": "no"}}, {"type": "node", "id": 539125787, "lat": 45.4867785, "lon": 9.1602382, "tags": {"amenity": "pub", "name": "Stalingrado", "survey:date": "2023-08-07"}}, {"type": "node", "id": 539236919, "lat": 45.5146215, "lon": 9.2111879, "tags": {"amenity": "pub", "check_date": "2024-03-13", "name": "Osteria delle Erbe"}}, {"type": "node", "id": 540699207, "lat": 45.5210682, "lon": 9.1165914, "tags": {"amenity": "cafe", "name": "Bar"}}, {"type": "node", "id": 540699224, "lat": 45.5176338, "lon": 9.1196459, "tags": {"amenity": "cafe", "name": "Chiosco Bibite"}}, {"type": "node", "id": 540699247, "lat": 45.527226, "lon": 9.1117442, "tags": {"addr:city": "Baranzate", "addr:housenumber": "240", "addr:postcode": "20021", "addr:street": "Via Milano", "amenity": "bar", "name": "I Tabacchi Vostri", "opening_hours": "Mo-Su 06:00-20:00", "phone": "+390238200288", "tobacco": "yes"}}, {"type": "node", "id": 540704413, "lat": 45.5422558, "lon": 9.1004683, "tags": {"addr:city": "Bollate", "addr:housenumber": "1", "addr:postcode": "20021", "addr:street": "Via Carlo Galimberti", "amenity": "bar", "name": "Bar Andrea", "wheelchair": "limited"}}, {"type": "node", "id": 540704416, "lat": 45.5569435, "lon": 9.0967985, "tags": {"addr:city": "Bollate", "addr:housenumber": "31", "addr:postcode": "20021", "addr:street": "Via Corte Grande", "amenity": "pub", "mobile": "+393488035129", "name": "Birreria Las Vegas", "outdoor_seating": "yes", "phone": "+390238301041", "start_date": "2004-01-25", "website": "http://www.lasvegasristopub.com/"}}, {"type": "node", "id": 540704424, "lat": 45.5412562, "lon": 9.100934, "tags": {"addr:city": "Bollate", "addr:housenumber": "14", "addr:postcode": "20021", "addr:street": "Via Milano", "amenity": "fast_food", "cuisine": "pizza;kebab", "drive_through": "no", "name": "Charlie Brown", "phone": "+3902 350 6190"}}, {"type": "node", "id": 540704426, "lat": 45.5403471, "lon": 9.1020806, "tags": {"addr:city": "Bollate", "addr:housenumber": "21", "addr:postcode": "20021", "addr:street": "Via Milano", "amenity": "bar", "name": "Bar Zeta", "wheelchair": "yes"}}, {"type": "node", "id": 540765340, "lat": 45.4828111, "lon": 9.1584389, "tags": {"amenity": "cafe", "name": "Caf\u00e8 Vigorelli"}}, {"type": "node", "id": 540765343, "lat": 45.4834836, "lon": 9.1613358, "tags": {"addr:city": "Milano", "addr:country": "IT", "addr:housenumber": "63", "addr:postcode": "20149", "addr:street": "Corso Sempione", "amenity": "bar", "name": "My Life Caf\u00e8"}}, {"type": "node", "id": 540813357, "lat": 45.4859082, "lon": 9.16045, "tags": {"addr:city": "Milano", "addr:housenumber": "55", "addr:postcode": "20154", "addr:street": "Via Piero della Francesca", "amenity": "bar", "contact:email": "info@55milano.com", "contact:phone": "+39 02 34936616", "name": "55 Milano", "opening_hours": "Mo-Su 00:00-03:00,18:00-24:00", "website": "https://www.55milano.com/"}}, {"type": "node", "id": 540813363, "lat": 45.4852926, "lon": 9.1619326, "tags": {"amenity": "bar", "name": "Choco Rock"}}, {"type": "node", "id": 540813367, "lat": 45.4852331, "lon": 9.1614442, "tags": {"addr:city": "Milano", "addr:housenumber": "47", "addr:postcode": "20154", "addr:street": "Via Piero della Francesca", "amenity": "nightclub", "contact:instagram": "gattopardomilano", "live_music": "yes", "name": "Il Gattopardo", "operator": "Maia & Co s.r.l.", "ref:vatin": "IT13243640151", "website": "https://www.ilgattopardomilano.com/"}}, {"type": "node", "id": 540813373, "lat": 45.4860412, "lon": 9.1634378, "tags": {"addr:city": "Milano", "addr:country": "IT", "addr:housenumber": "15", "addr:postcode": "20154", "addr:street": "Via Losanna", "amenity": "bar", "name": "L'Angolo", "outdoor_seating": "yes"}}, {"type": "node", "id": 540813394, "lat": 45.4847462, "lon": 9.1645702, "tags": {"addr:city": "Milano", "addr:country": "IT", "addr:housenumber": "18", "addr:postcode": "20154", "addr:street": "Via Lodovico Castelvetro", "amenity": "ice_cream", "contact:phone": "+39 02 349 4943", "email": "info@ilmassimodelgelato.it", "name": "il Massimo del gelato", "opening_hours": "Tu-Su 12:00-23:00", "operator": "Il Massimo del gelato srl", "ref:vatin": "IT07256070967", "website": "https://ilmassimodelgelato.it/"}}, {"type": "node", "id": 540813406, "lat": 45.4850877, "lon": 9.1651791, "tags": {"amenity": "bar", "name": "Il Caff\u00e8 di Via Fauche'"}}, {"type": "node", "id": 540813420, "lat": 45.4839621, "lon": 9.1633457, "tags": {"amenity": "cafe", "name": "Ritratto di Caff\u00e8"}}, {"type": "node", "id": 540813448, "lat": 45.4810212, "lon": 9.1618768, "tags": {"amenity": "cafe", "name": "Express Caf\u00e8", "outdoor_seating": "yes", "sells:tobacco": "yes"}}, {"type": "node", "id": 540813450, "lat": 45.4808006, "lon": 9.1613999, "tags": {"addr:city": "Milano", "addr:country": "IT", "addr:housenumber": "21", "addr:postcode": "20145", "addr:street": "Via Domodossola", "amenity": "bar", "name": "Mister Bar"}}, {"type": "node", "id": 540813452, "lat": 45.4807068, "lon": 9.1604412, "tags": {"amenity": "cafe", "name": "Millenium caf\u00e9", "tobacco": "yes"}}, {"type": "node", "id": 540813458, "lat": 45.481826, "lon": 9.1635061, "tags": {"amenity": "cafe", "name": "Sempione 49"}}, {"type": "node", "id": 540824119, "lat": 45.4872784, "lon": 9.1614404, "tags": {"amenity": "bar", "name": "Paradise Caff\u00e8"}}, {"type": "node", "id": 540824165, "lat": 45.4864124, "lon": 9.1590177, "tags": {"amenity": "cafe", "name": "Time Out"}}, {"type": "node", "id": 540824175, "lat": 45.4869794, "lon": 9.1598479, "tags": {"amenity": "ice_cream"}}, {"type": "node", "id": 540824201, "lat": 45.4863254, "lon": 9.1595877, "tags": {"amenity": "bar", "name": "Riviera", "survey:date": "2023-08-07"}}, {"type": "node", "id": 540830208, "lat": 45.4825026, "lon": 9.1667512, "tags": {"amenity": "cafe", "name": "Flash Bar"}}, {"type": "node", "id": 541015128, "lat": 45.5092618, "lon": 9.1322141, "tags": {"amenity": "bar", "tobacco": "yes"}}, {"type": "node", "id": 541015134, "lat": 45.5085673, "lon": 9.1330956, "tags": {"addr:city": "Milano", "addr:housenumber": "24", "addr:postcode": "20157", "addr:street": "Via Antonio Mambretti", "amenity": "bar", "name": "Crazy Moon"}}, {"type": "node", "id": 541015147, "lat": 45.5169878, "lon": 9.1203497, "tags": {"addr:city": "Milano", "addr:housenumber": "67", "addr:postcode": "20157", "addr:street": "Via Giovanni Battista Grassi", "amenity": "bar", "name": "Happy Hour", "operator": "Gao Youhai", "phone": "+39023567193"}}, {"type": "node", "id": 541033827, "lat": 45.496196, "lon": 9.154629, "tags": {"amenity": "bar"}}, {"type": "node", "id": 541033870, "lat": 45.4974144, "lon": 9.1528452, "tags": {"amenity": "bar", "name": "Mac 111"}}, {"type": "node", "id": 541033997, "lat": 45.499159, "lon": 9.1504076, "tags": {"amenity": "cafe", "name": "Bar Castelli", "outdoor_seating": "yes"}}, {"type": "node", "id": 541052308, "lat": 45.487121, "lon": 9.1620329, "tags": {"amenity": "cafe", "name": "Al 37"}}, {"type": "node", "id": 541052311, "lat": 45.4870531, "lon": 9.1626277, "tags": {"amenity": "bar"}}, {"type": "node", "id": 541052316, "lat": 45.4871573, "lon": 9.1671499, "tags": {"addr:city": "Milano", "addr:country": "IT", "addr:housenumber": "37", "addr:postcode": "20154", "addr:street": "Via Cenisio", "amenity": "pub", "name": "Malt", "phone": "+390233602855"}}, {"type": "node", "id": 543398224, "lat": 45.4854628, "lon": 9.16155, "tags": {"amenity": "cafe"}}, {"type": "node", "id": 543398353, "lat": 45.4831171, "lon": 9.1640946, "tags": {"amenity": "pub", "name": "Whisky Bar"}}, {"type": "node", "id": 543398589, "lat": 45.4836238, "lon": 9.1657835, "tags": {"amenity": "bar", "name": "Bar Mauri"}}, {"type": "node", "id": 543404946, "lat": 45.4995952, "lon": 9.1492329, "tags": {"amenity": "cafe", "name": "Peter Pan Caf\u00e8", "outdoor_seating": "yes"}}, {"type": "node", "id": 543406358, "lat": 45.5071005, "lon": 9.134769, "tags": {"amenity": "cafe"}}, {"type": "node", "id": 543412770, "lat": 45.5122972, "lon": 9.1275499, "tags": {"amenity": "bar", "name": "Bar Boschetti", "wifi": "no"}}, {"type": "node", "id": 544466872, "lat": 45.5093783, "lon": 9.1321181, "tags": {"amenity": "bar"}}, {"type": "node", "id": 559731761, "lat": 45.4458102, "lon": 9.1786259, "tags": {"amenity": "pub", "name": "Nox"}}, {"type": "node", "id": 559731854, "lat": 45.4455769, "lon": 9.178355, "tags": {"addr:city": "Milano", "addr:country": "IT", "addr:housenumber": "5", "addr:postcode": "20136", "addr:street": "Via Evangelista Torricelli", "amenity": "pub", "contact:facebook": "https://www.facebook.com/people/Frizzi-Lazzi-Bar/100063660577995/", "name": "Frizzi & Lazzi", "opening_hours": "Mo-Su 18:30-02:00", "phone": "+39028378228"}}, {"type": "node", "id": 567547732, "lat": 45.4807579, "lon": 9.2364606, "tags": {"addr:housenumber": "61", "addr:street": "Via Valvassori Peroni", "amenity": "pub", "name": "Largo's caffe", "opening_hours": "Tu-Fr 07:00-02:00; Sa 06:00-15:00, 19:00-02:00; Su 08:00-23:00", "phone": "+39 02 8417 5116"}}, {"type": "node", "id": 593498159, "lat": 45.4516696, "lon": 9.1868555, "tags": {"amenity": "cafe", "name": "Bar Tiffany", "tobacco": "yes"}}, {"type": "node", "id": 593509312, "lat": 45.4510576, "lon": 9.1944915, "tags": {"amenity": "pub", "name": "Volo"}}, {"type": "node", "id": 593564954, "lat": 45.4508039, "lon": 9.1901641, "tags": {"amenity": "bar", "name": "Gi\u00f2 Docet"}}, {"type": "node", "id": 593564959, "lat": 45.45074, "lon": 9.1906166, "tags": {"amenity": "bar", "name": "Bar Bocconi"}}, {"type": "node", "id": 593564964, "lat": 45.4509808, "lon": 9.1895706, "tags": {"amenity": "cafe", "name": "Lino's Coffe"}}, {"type": "node", "id": 607979855, "lat": 45.4448892, "lon": 9.1793271, "tags": {"amenity": "cafe", "name": "Illy Cafe"}}, {"type": "node", "id": 611589020, "lat": 45.451535, "lon": 9.187457, "tags": {"amenity": "cafe", "name": "Venti 136"}}, {"type": "node", "id": 611589555, "lat": 45.4508146, "lon": 9.1910465, "tags": {"amenity": "fast_food", "description": "Pizza", "name": "Bocconi Giusti", "takeaway": "yes"}}, {"type": "node", "id": 611597409, "lat": 45.4482032, "lon": 9.1867801, "tags": {"amenity": "cafe", "name": "Green Mill"}}, {"type": "node", "id": 613614569, "lat": 45.4811424, "lon": 9.2352962, "tags": {"amenity": "pub", "name": "JJ's Corner", "opening_hours": "Su-Th 17:30-01:00, Fr,Sa 17:30-02:00", "outdoor_seating": "yes", "phone": "+39 02 70600004"}}, {"type": "node", "id": 614695435, "lat": 45.4710468, "lon": 9.2287397, "tags": {"amenity": "cafe", "name": "Gelateria Delice"}}, {"type": "node", "id": 614695445, "lat": 45.470696, "lon": 9.2282944, "tags": {"addr:city": "Milano", "addr:housenumber": "9", "addr:postcode": "20133", "addr:street": "Via Giovanni Briosi", "amenity": "pub", "name": "Barbarian's"}}, {"type": "node", "id": 633022084, "lat": 45.5525204, "lon": 9.1675969, "tags": {"amenity": "cafe", "tobacco": "yes"}}, {"type": "node", "id": 635127452, "lat": 45.4592793, "lon": 9.1924013, "tags": {"addr:city": "Milano", "addr:country": "IT", "addr:housenumber": "19", "addr:postcode": "20122", "addr:street": "Via Pantano", "amenity": "bar", "contact:facebook": "https://www.facebook.com/BAR.ONE.Bar.Tabacchi/", "name": "Bar One", "phone": "+390258304472"}}, {"type": "node", "id": 649123205, "lat": 45.545328, "lon": 9.1697966, "tags": {"amenity": "cafe", "name": "Bar One", "source": "survey"}}, {"type": "node", "id": 649848740, "lat": 45.5499977, "lon": 9.1611585, "tags": {"amenity": "fast_food", "cuisine": "pizza", "name": "Skipper", "note": "pizza da asporto", "phone": "+39 02 6152291"}}, {"type": "node", "id": 651084987, "lat": 45.5490137, "lon": 9.1600061, "tags": {"amenity": "cafe"}}, {"type": "node", "id": 652008916, "lat": 45.5085551, "lon": 9.189842}, {"type": "node", "id": 652008919, "lat": 45.5085765, "lon": 9.1897788}, {"type": "node", "id": 652008922, "lat": 45.5085482, "lon": 9.1897867}, {"type": "node", "id": 652008924, "lat": 45.5085424, "lon": 9.1898205}, {"type": "node", "id": 652008929, "lat": 45.5086976, "lon": 9.1899095}, {"type": "node", "id": 652008942, "lat": 45.5087249, "lon": 9.1898988}, {"type": "node", "id": 652008944, "lat": 45.5087146, "lon": 9.1898443}, {"type": "node", "id": 652008946, "lat": 45.5087304, "lon": 9.1898759}, {"type": "node", "id": 652829050, "lat": 45.548996, "lon": 9.1609821, "tags": {"amenity": "ice_cream", "bakery": "yes", "name": "Orto Gelato"}}, {"type": "node", "id": 652909494, "lat": 45.5486188, "lon": 9.1558799, "tags": {"amenity": "cafe", "name": "Coffee & Cigarettes", "source": "survey"}}, {"type": "node", "id": 652933627, "lat": 45.5488046, "lon": 9.1581083, "tags": {"amenity": "cafe", "name": "Antigua Caf\u00e8 Gelateria", "source": "survey"}}, {"type": "node", "id": 655301750, "lat": 45.4911864, "lon": 9.2946804, "tags": {"amenity": "cafe", "fixme": "name"}}, {"type": "node", "id": 656073681, "lat": 45.4917391, "lon": 9.2945087, "tags": {"amenity": "fast_food", "name": "Pizza Kebap"}}, {"type": "node", "id": 659603806, "lat": 45.4474955, "lon": 9.155538, "tags": {"addr:city": "Milano", "addr:country": "IT", "addr:housenumber": "3", "addr:postcode": "20143", "addr:street": "Via Lodovico il Moro", "amenity": "ice_cream", "name": "La Gelateria della Musica", "source": "survey"}}, {"type": "node", "id": 660684257, "lat": 45.5425071, "lon": 9.1874477, "tags": {"amenity": "pub", "name": "Pollicino"}}, {"type": "node", "id": 660909500, "lat": 45.5480891, "lon": 9.1604594, "tags": {"amenity": "cafe", "name": "Oblad\u00ec Oblad\u00e0 Tavola Fredda Caffetteria"}}, {"type": "node", "id": 660969369, "lat": 45.4949543, "lon": 9.2942297, "tags": {"amenity": "cafe", "name": "Cris"}}, {"type": "node", "id": 660972859, "lat": 45.4942391, "lon": 9.2958512, "tags": {"amenity": "cafe", "name": "Sudan"}}, {"type": "node", "id": 661079651, "lat": 45.4507082, "lon": 9.1779486, "tags": {"addr:housenumber": "9", "addr:postcode": "20136", "addr:street": "Via Ascanio Sforza", "amenity": "pub", "check_date": "2023-04-16", "name": "DrinKasi", "opening_hours": "Mo-Su 18:00-02:00", "website": "https://drinkasi.webnode.it"}}, {"type": "node", "id": 661197279, "lat": 45.548671, "lon": 9.1603317, "tags": {"amenity": "cafe", "name": "Il Salotto"}}, {"type": "node", "id": 661491885, "lat": 45.4856246, "lon": 9.2159366, "tags": {"addr:housenumber": "79", "addr:postcode": "20124", "addr:street": "Corso Buenos Aires", "amenity": "fast_food", "brand": "McDonald's", "brand:wikidata": "Q38076", "brand:wikipedia": "en:McDonald's", "cuisine": "burger", "name": "McDonald's", "ref:vatin": "IT06748500961", "takeaway": "yes", "wheelchair": "yes"}}, {"type": "node", "id": 661675964, "lat": 45.5463904, "lon": 9.1602394, "tags": {"amenity": "cafe", "name": "Bella Vita Drink Bar", "source": "survey"}}, {"type": "node", "id": 663355746, "lat": 45.5010085, "lon": 9.2224487, "tags": {"amenity": "bar", "name": "Caff\u00e8 Picchio"}}, {"type": "node", "id": 667274860, "lat": 45.4462528, "lon": 9.1792204, "tags": {"addr:city": "Milano", "addr:housenumber": "1", "addr:postcode": "20136", "addr:street": "Via Evangelista Torricelli", "amenity": "pub", "brewery": "yes", "check_date": "2023-04-14", "contact:email": "info@labellealliance.it", "contact:facebook": "labellealliance.it", "contact:foursquare": "labellealliance", "contact:instagram": "labellealliance", "contact:phone": "+39 02 9924 6410", "contact:tripadvisor": "1937524", "contact:twitter": "labellealliance", "contact:website": "https://www.labellealliance.it", "contact:whatsapp": "+39 02 9924 6410", "contact:yelp": "la-belle-alliance-milano", "cuisine": "snack;burger", "internet_access": "wlan", "internet_access:fee": "customers", "level": "0", "name": "La Belle Alliance", "opening_hours": "Mo-Su 18:00-26:00", "operator": "Onepub s.a.s. di Ivano Falzone & C.", "outdoor_seating": "yes", "ref:vatin": "IT03248490967", "smoking": "outside", "toilets": "yes", "website:menu": "https://www.labellealliance.it/doc/labellealliance-menu.pdf", "wheelchair": "yes"}}, {"type": "node", "id": 672887508, "lat": 45.3765456, "lon": 9.2126241, "tags": {"amenity": "cafe", "name": "Opera Magna", "wheelchair": "limited"}}, {"type": "node", "id": 672888406, "lat": 45.377352, "lon": 9.2127528, "tags": {"amenity": "pub", "name": "American Bar", "wheelchair": "no"}}, {"type": "node", "id": 672889143, "lat": 45.3776986, "lon": 9.2118945, "tags": {"amenity": "pub"}}, {"type": "node", "id": 672889727, "lat": 45.3780076, "lon": 9.2119267, "tags": {"amenity": "fast_food", "name": "D e G Pizzeria"}}, {"type": "node", "id": 672898625, "lat": 45.3743223, "lon": 9.2120018, "tags": {"amenity": "pub", "wheelchair": "no"}}, {"type": "node", "id": 680094627, "lat": 45.4663447, "lon": 9.1889231, "tags": {"addr:housenumber": "16", "addr:postcode": "20121", "addr:street": "Via Santa Margherita", "amenity": "ice_cream", "brand": "Grom", "brand:wikidata": "Q3776892", "check_date": "2025-09-24", "contact:email": "esperienza@grom.it", "indoor_seating": "yes", "name": "Grom", "operator": "Gromart S.r.l.", "outdoor_seating": "no", "ref:vatin": "IT08654840019", "takeaway": "yes", "website": "https://www.grom.it/", "wheelchair": "no"}}, {"type": "node", "id": 693864292, "lat": 45.4960114, "lon": 9.1390191, "tags": {"addr:city": "Milano", "addr:housenumber": "134", "addr:postcode": "20156", "addr:street": "Viale Certosa", "amenity": "fast_food", "brand": "McDonald's", "brand:wikidata": "Q38076", "brand:wikipedia": "en:McDonald's", "cuisine": "burger", "drive_through": "yes", "name": "McDonald's", "opening_hours": "Su-Th 08:00-01:00, Fr,Sa 08:00-04:00", "phone": "+390233405351", "takeaway": "yes", "website": "https://www.mcdonalds.it/ristorante/lombardia/milano/milano-certosa"}}, {"type": "node", "id": 693913373, "lat": 45.5001869, "lon": 9.1307835}, {"type": "node", "id": 693913374, "lat": 45.500201, "lon": 9.1309573}, {"type": "node", "id": 700257211, "lat": 45.4493962, "lon": 9.190316}, {"type": "node", "id": 701980443, "lat": 45.4716994, "lon": 9.1670469, "tags": {"addr:housenumber": "7", "addr:postcode": "20123", "addr:street": "Largo Quinto Alpini", "alt_name": "La Bottega dell'Antico Gusto", "amenity": "cafe", "check_date": "2025-10-06", "contact:facebook": "https://www.facebook.com/amoresicilianbakery", "contact:instagram": "https://www.instagram.com/amore_sicilianbakery/", "description:it": "oltre a caffetteria vende dolci e salati tipici sicilinai (ad esempio arancini e cannoli)", "name": "Amore Sicilian Bakery", "operator": "Sanfra s.r.l.", "phone": "+39 02 84249579", "wheelchair": "no"}}, {"type": "node", "id": 702123543, "lat": 45.4762187, "lon": 9.1713186, "tags": {"addr:city": "Milano", "addr:housenumber": "1", "addr:postcode": "20145", "addr:street": "Corso Sempione", "all_you_can_eat": "yes", "amenity": "pub", "check_date": "2023-08-27", "cocktails": "yes", "contact:email": "info@bhangrabar.it", "contact:facebook": "https://www.facebook.com/Bhangra-Bar-156572811047542/", "contact:instagram": "https://www.instagram.com/bhangrabar", "contact:phone": "+39 02 34934469", "contact:pinterest": "https://pinterest.com/bhangrabar/", "contact:tripadvisor": "https://www.tripadvisor.com/Restaurant_Review-g187849-d941831", "contact:website": "http://bhangrabar.it;http://www.bhangrabar.app", "contact:yelp": "https://www.yelp.com/biz/bhangrabar-milano", "cuisine": "indian", "food": "yes", "kids_area": "no", "name": "Bhangrabar", "name:en": "Bhangrabar", "name:it": "Bhangrabar", "opening_hours": "Mo-Su 18:00-02:00; Dec 24,25,31 off", "outdoor_seating": "no", "ref:vatin": "IT13011290155", "reservation": "recommended", "smoking": "no", "website": "https://bhangrabar.it/", "website:reservation": "http://www.bhangrabar.app"}}, {"type": "node", "id": 702123819, "lat": 45.4765344, "lon": 9.1716956, "tags": {"addr:housenumber": "8", "addr:postcode": "20145", "addr:street": "Piazza Sempione", "amenity": "bar", "name": "Deseo", "operator": "Sempione 8 srl", "phone": "+39 02 315164", "ref:vatin": "IT04609690963", "website": "https://www.deseomilano.com/", "website:menu:drink": "https://www.milanonotte.com/?page_id=2836"}}, {"type": "node", "id": 702126366, "lat": 45.4772869, "lon": 9.1707285, "tags": {"addr:city": "Milano", "addr:country": "IT", "addr:housenumber": "8", "addr:postcode": "20154", "addr:street": "Corso Sempione", "amenity": "bar", "comment:it": "anche caff\u00e8 e ristorante oltre che bar", "contact:email": "info@jazzcafe.it", "contact:phone": "+39 02 33604039", "contact:website": "https://www.jazzcafe.it/", "name": "Jazz Caf\u00e8", "operator": "Bimbi Sperduti S.R.L.", "ref:vatin": "IT12263560158"}}, {"type": "node", "id": 702128300, "lat": 45.4773077, "lon": 9.1746406, "tags": {"addr:city": "Milano", "addr:country": "IT", "addr:housenumber": "2", "addr:postcode": "20154", "addr:street": "Via Agostino Bertani", "amenity": "bar", "email": "info@pilspub.com", "indoor_seating": "yes", "name": "Pils Pub", "outdoor_seating": "yes", "phone": "+39 02 34592858", "website": "https://www.pilspub.com/"}}, {"type": "node", "id": 702128511, "lat": 45.4772324, "lon": 9.1745466, "tags": {"amenity": "cafe", "name": "Carpe Diem Bar", "tobacco": "yes"}}, {"type": "node", "id": 702128708, "lat": 45.4763635, "lon": 9.173164, "tags": {"addr:city": "Milano", "addr:housenumber": "2", "addr:postcode": "20154", "addr:street": "Piazza Sempione", "amenity": "bar", "description": "liquers & delights at night; caf\u00e9 and food during the day", "indoor_seating": "yes", "name": "Living", "name:it": "Living", "operator": "Fase Dur S.r.l.", "outdoor_seating": "yes", "website": "https://www.livingmilano.com/"}}, {"type": "node", "id": 702129660, "lat": 45.4777967, "lon": 9.1740196, "tags": {"amenity": "cafe", "indoor_seating": "yes", "name": "Pandemus", "outdoor_seating": "yes"}}, {"type": "node", "id": 702131045, "lat": 45.479745, "lon": 9.1699078, "tags": {"amenity": "cafe", "fixme": "posizione"}}, {"type": "node", "id": 702133218, "lat": 45.4778135, "lon": 9.1753849, "tags": {"amenity": "bar"}}, {"type": "node", "id": 705704779, "lat": 45.5008453, "lon": 9.1336806, "tags": {"amenity": "cafe", "name": "Breezy Bar"}}, {"type": "node", "id": 715796000, "lat": 45.4717734, "lon": 9.1442582, "tags": {"amenity": "bar", "name": "Globe"}}, {"type": "node", "id": 718857133, "lat": 45.4659229, "lon": 9.1856596, "tags": {"addr:city": "Milano", "addr:country": "IT", "addr:housenumber": "2n13", "addr:postcode": "20121", "addr:street": "Via Dante", "alt_name": "Granaio Cordusio", "amenity": "cafe", "check_date": "2024-05-25", "description:it": "la scritta dice \"Caff\u00e8, cucina, gelato\"", "email": "cordusio@ristorantegranaio.it", "indoor_seating": "yes", "name": "Granaio", "operator": "Ristorante Savini Srl", "outdoor_seating": "yes", "phone": "+39 02 89092240", "ref:vatin": "IT00748810157"}}, {"type": "node", "id": 723173227, "lat": 45.4676673, "lon": 9.1740861, "tags": {"addr:city": "Milano", "addr:country": "IT", "addr:housenumber": "9n03", "addr:postcode": "20123", "addr:street": "Via Giovanni Boccaccio", "amenity": "cafe", "branch": "Milan", "brand": "Chocolat", "check_date": "2023-03-14", "contact:email": "boccaccionovemilano@chocolatmilano.it", "contact:facebook": "chocolatmi", "contact:instagram": "chocolat_milano", "contact:phone": "+39 02 48100597", "contact:tripadvisor": "3346073", "contact:website": "https://www.chocolatmilano.it/", "cuisine": "ice_cream", "delivery": "yes", "drive_through": "no", "indoor_seating": "yes", "level": "0", "name": "Chocolat", "old_name": "Shockolat", "operator": "Boccaccio Nove Chocolat srl", "outdoor_seating": "yes", "ref:vatin": "IT03315650964", "smoking": "no", "takeaway": "yes", "wheelchair": "yes"}}, {"type": "node", "id": 726880758, "lat": 45.4901906, "lon": 9.1508399, "tags": {"addr:city": "Milano", "addr:country": "IT", "addr:housenumber": "41", "addr:street": "Viale Certosa", "amenity": "bar", "name": "Vanilla"}}, {"type": "node", "id": 730982996, "lat": 45.4575857, "lon": 9.1730117, "tags": {"addr:city": "Milano", "addr:housenumber": "14", "addr:postcode": "20123", "addr:street": "Via Cesare da Sesto", "amenity": "pub", "contact:facebook": "https://www.facebook.com/allabottegadelcaffe/", "name": "La bottega del caffe' (Marinella)", "phone": "+390249531425"}}, {"type": "node", "id": 746951476, "lat": 45.4513229, "lon": 9.1776869, "tags": {"amenity": "pub", "name": "King's Pub", "website": "https://kingspub.it/"}}, {"type": "node", "id": 747056888, "lat": 45.4675119, "lon": 9.176518, "tags": {"addr:city": "Milano", "addr:housenumber": "2", "addr:postcode": "20123", "addr:street": "Via Giosu\u00e8 Carducci", "amenity": "cafe", "email": "info@larocchettacaffe.it", "name": "La Rocchetta Caffe Bistrot\u200b", "phone": "+390278623287", "ref:vatin": "IT07939180159", "website": "https://www.larocchettacaffe.it/", "wheelchair": "no"}}, {"type": "node", "id": 764062989, "lat": 45.3748304, "lon": 9.1715297}, {"type": "node", "id": 764063296, "lat": 45.3755683, "lon": 9.1695776}, {"type": "node", "id": 764063428, "lat": 45.3749686, "lon": 9.1715992}, {"type": "node", "id": 765634151, "lat": 45.4599039, "lon": 9.0960918, "tags": {"amenity": "cafe"}}, {"type": "node", "id": 765634325, "lat": 45.4564031, "lon": 9.0911774, "tags": {"amenity": "cafe"}}, {"type": "node", "id": 775689870, "lat": 45.4963159, "lon": 9.0435653, "tags": {"amenity": "cafe", "name": "Bar '900"}}, {"type": "node", "id": 775689871, "lat": 45.4970604, "lon": 9.0432853, "tags": {"amenity": "cafe"}}, {"type": "node", "id": 775862771, "lat": 45.4967526, "lon": 9.0435599, "tags": {"amenity": "bar"}}, {"type": "node", "id": 778336742, "lat": 45.4887067, "lon": 9.0558937, "tags": {"amenity": "bar", "name": "Seven Bar"}}, {"type": "node", "id": 793812586, "lat": 45.4534733, "lon": 9.2154232, "tags": {"addr:city": "Milano", "addr:country": "IT", "addr:housenumber": "56", "addr:street": "Viale Umbria", "amenity": "fast_food", "cuisine": "burger", "name": "Hot doggy", "phone": "+39 320 4520531", "ref:vatin": "IT05353930968"}}, {"type": "node", "id": 793812848, "lat": 45.4535888, "lon": 9.2148764, "tags": {"amenity": "cafe"}}, {"type": "node", "id": 830316385, "lat": 45.4827112, "lon": 9.1850579, "tags": {"addr:city": "Milano", "addr:country": "IT", "addr:housenumber": "11a", "addr:postcode": "20154", "addr:street": "Via privata Nino Bonnet", "amenity": "cafe", "name": "Gran Caff\u00e8 Bonnet"}}, {"type": "node", "id": 839160053, "lat": 45.4768891, "lon": 9.2252212, "tags": {"addr:city": "Milano", "addr:housenumber": "55", "addr:postcode": "20133", "addr:street": "Via Giovanni Pascoli", "alt_name": "Spritzeria", "amenity": "cafe", "contact:fax": "+39 02 7063 3536", "contact:phone": "+39 02 7063 3536", "cuisine": "italian;bubble_tea", "indoor_seating": "yes", "name": "New Brand Caf\u00e8 - Spritzeria - Bubble Tea", "opening_hours": "Mo-Fr 07:00-20:30; PH closed; Sa 17:00-21:00", "operator": "New Brand Caf\u00e9 S.a.s.", "outdoor_seating": "yes", "owner": "Vendola Alessandro & C.", "ref:vatin": "IT04138570967", "takeaway": "yes", "toilets:access": "customers", "toilets:wheelchair": "designated", "wheelchair": "limited"}}, {"type": "node", "id": 849599905, "lat": 45.5710874, "lon": 9.1477867, "tags": {"amenity": "fast_food", "brand": "Pizza Inn", "brand:wikidata": "Q4118850", "brand:wikipedia": "en:Pizza Inn", "cuisine": "pizza", "name": "Pizza Inn", "takeaway": "yes"}}, {"type": "node", "id": 849967279, "lat": 45.5503097, "lon": 9.2827636, "tags": {"addr:city": "Brugherio", "addr:country": "IT", "addr:housenumber": "11", "addr:postcode": "20861", "addr:street": "Piazza Palmiro Togliatti", "amenity": "cafe", "contact:facebook": "https://www.facebook.com/pages/LUCIGNOLO-CAFE/230332904637", "cuisine": "italian", "internet_access": "no", "name": "Lucignolo Caf\u00e8"}}, {"type": "node", "id": 854011689, "lat": 45.5540205, "lon": 9.3033376, "tags": {"amenity": "cafe", "name": "Chiosco Grelle"}}, {"type": "node", "id": 867322280, "lat": 45.4620731, "lon": 9.21983, "tags": {"amenity": "bar", "name": "feelgood"}}, {"type": "node", "id": 869674738, "lat": 45.5511123, "lon": 9.3008983, "tags": {"addr:city": "Brugherio", "addr:housenumber": "4", "addr:postcode": "20861", "addr:street": "Via San Bartolomeo", "amenity": "cafe", "name": "Caff\u00e8 Roma"}}, {"type": "node", "id": 870074158, "lat": 45.4530743, "lon": 9.170854, "tags": {"addr:city": "Milano", "addr:housenumber": "43", "addr:postcode": "20144", "addr:street": "Via Vigevano", "amenity": "fast_food", "branch": "Porta Genova", "brand": "Alice", "brand:wikidata": "Q113973272", "cuisine": "pizza", "delivery": "yes", "drive_through": "no", "name": "Alice", "opening_hours": "Mo-Th 11:30-22:00; Fr-Su 11:30-22:30", "operator": "Alice Pizza", "phone": "+390242101151", "takeaway": "yes", "website": "https://www.alicepizza.it/store/alice-porta-genova/"}}, {"type": "node", "id": 874513780, "lat": 45.5478874, "lon": 9.2696865, "tags": {"amenity": "cafe", "name": "Smile Caf\u00e8"}}, {"type": "node", "id": 878112859, "lat": 45.5537184, "lon": 9.2978033, "tags": {"amenity": "cafe", "name": "Bar-Tabacchi"}}, {"type": "node", "id": 878113811, "lat": 45.557221, "lon": 9.2957313, "tags": {"amenity": "cafe", "name": "Sister Bar Jesi"}}, {"type": "node", "id": 883480163, "lat": 45.551912, "lon": 9.3060147, "tags": {"amenity": "bar", "name": "Paninoteca - Punto SNAI"}}, {"type": "node", "id": 888586956, "lat": 45.3932083, "lon": 9.1502768}, {"type": "node", "id": 888586975, "lat": 45.3928931, "lon": 9.1500853}, {"type": "node", "id": 888586986, "lat": 45.3929477, "lon": 9.1499029}, {"type": "node", "id": 888587025, "lat": 45.3932629, "lon": 9.1500944}, {"type": "node", "id": 889542057, "lat": 45.548924, "lon": 9.3034491, "tags": {"amenity": "cafe", "name": "L'altro bar"}}, {"type": "node", "id": 889542150, "lat": 45.5503122, "lon": 9.3020249, "tags": {"addr:city": "Brugherio", "addr:housenumber": "1", "addr:postcode": "20861", "addr:street": "Via Tre Re", "amenity": "cafe", "name": "Bar Italia"}}, {"type": "node", "id": 889542405, "lat": 45.5428781, "lon": 9.2978196, "tags": {"amenity": "cafe", "check_date:opening_hours": "2024-04-08", "name": "Elis Bar", "opening_hours:signed": "no"}}, {"type": "node", "id": 889542468, "lat": 45.5529612, "lon": 9.3040911, "tags": {"amenity": "cafe", "name": "BundaLinda"}}, {"type": "node", "id": 889543062, "lat": 45.5484625, "lon": 9.3059594, "tags": {"amenity": "cafe", "name": "Bar-Caff\u00e8"}}, {"type": "node", "id": 891151743, "lat": 45.5488854, "lon": 9.2981193, "tags": {"addr:city": "Brugherio", "addr:housenumber": "50", "addr:postcode": "20861", "addr:street": "Via Dante Alighieri", "amenity": "cafe", "description": "Ex Bar Beretta.", "name": "Bar Dante"}}, {"type": "node", "id": 891151784, "lat": 45.5503045, "lon": 9.300954, "tags": {"addr:city": "Brugherio", "addr:housenumber": "10", "addr:postcode": "20861", "addr:street": "Piazza Roma", "amenity": "bar", "name": "Bar Centrale"}}, {"type": "node", "id": 891151971, "lat": 45.5540212, "lon": 9.301448, "tags": {"addr:city": "Brugherio", "addr:postcode": "20861", "addr:street": "Via Federico Sciviero", "amenity": "cafe", "name": "Caff\u00e8 padano"}}, {"type": "node", "id": 891152008, "lat": 45.551706, "lon": 9.3010623, "tags": {"addr:city": "Brugherio", "addr:postcode": "20861", "addr:street": "Via Antonio Gramsci", "amenity": "cafe", "name": "Bar-Trattoria \"Anna e Andrea\""}}, {"type": "node", "id": 891152037, "lat": 45.554027, "lon": 9.3012652, "tags": {"amenity": "bar", "name": "Bar Gramsci"}}, {"type": "node", "id": 891152062, "lat": 45.5509818, "lon": 9.3010779, "tags": {"addr:city": "Brugherio", "addr:housenumber": "22", "addr:postcode": "20861", "addr:street": "Piazza Roma", "amenity": "ice_cream", "name": "Ottavo Senso", "opening_hours": "Tu-Th 12:00-20:30; Fr,Sa 12:00-22:30; Su 11:00-13:00,15:00-22:00", "wheelchair": "yes"}}, {"type": "node", "id": 891152091, "lat": 45.5513743, "lon": 9.300476, "tags": {"amenity": "cafe", "name": "Caff\u00e8 Mozart"}}, {"type": "node", "id": 909096451, "lat": 45.5130729, "lon": 9.2142544}, {"type": "node", "id": 909096547, "lat": 45.5133129, "lon": 9.2144455}, {"type": "node", "id": 909096565, "lat": 45.513248, "lon": 9.2143814}, {"type": "node", "id": 909096616, "lat": 45.5132432, "lon": 9.2143949}, {"type": "node", "id": 915268583, "lat": 45.528143, "lon": 9.2744133, "tags": {"amenity": "cafe", "name": "Bar Ginevra"}}, {"type": "node", "id": 915268584, "lat": 45.5286014, "lon": 9.274585, "tags": {"amenity": "cafe", "name": "Torrefazione Colognese", "wheelchair": "no"}}, {"type": "node", "id": 915432378, "lat": 45.5285902, "lon": 9.2737588, "tags": {"amenity": "cafe", "name": "Sidecar Caf\u00e8"}}, {"type": "node", "id": 915433043, "lat": 45.5245539, "lon": 9.2712574, "tags": {"amenity": "pub", "name": "Lord Byron"}}, {"type": "node", "id": 920989496, "lat": 45.5357686, "lon": 9.2221634}, {"type": "node", "id": 922117923, "lat": 45.5479183, "lon": 9.2860866, "tags": {"amenity": "cafe", "name": "Bar Tabacchi \"Al Villaggio\"", "tobacco": "yes"}}, {"type": "node", "id": 931870971, "lat": 45.5393272, "lon": 9.222628, "tags": {"amenity": "cafe", "name": "Bar Saint Denis"}}, {"type": "node", "id": 932365447, "lat": 45.5452176, "lon": 9.1185459, "tags": {"addr:city": "Bollate", "addr:country": "IT", "addr:postcode": "20021", "addr:street": "Via Ambrogio da Bollate", "amenity": "pub", "check_date": "2024-04-13", "contact:email": "elbarrioloco@gmail.com", "currency:XBT": "yes", "name": "El barrio loco", "opening_hours": "Mo-Su 20:00-02:00", "operator": "mino", "payment:lightning": "yes", "payment:lightning_contactless": "no", "payment:onchain": "no", "wheelchair": "limited"}}, {"type": "node", "id": 932365455, "lat": 45.5440461, "lon": 9.1158437, "tags": {"addr:city": "Bollate", "addr:country": "IT", "addr:postcode": "20021", "addr:street": "Via Roma", "amenity": "bar", "name": "T-Bon", "wheelchair": "limited"}}, {"type": "node", "id": 935336545, "lat": 45.4728226, "lon": 9.1922018, "tags": {"addr:city": "Milano", "addr:housenumber": "22", "addr:postcode": "20121", "addr:street": "Via Fatebenefratelli", "amenity": "cafe", "name": "Arcadia Caffe Self Service"}}, {"type": "node", "id": 951637115, "lat": 45.4649113, "lon": 9.1906733}, {"type": "node", "id": 951637145, "lat": 45.464919, "lon": 9.1902845}, {"type": "node", "id": 951637174, "lat": 45.4649872, "lon": 9.1902838}, {"type": "node", "id": 951637217, "lat": 45.4649196, "lon": 9.190407}, {"type": "node", "id": 951637237, "lat": 45.4649877, "lon": 9.1904064}, {"type": "node", "id": 966244297, "lat": 45.5417096, "lon": 9.1174872, "tags": {"addr:city": "Bollate", "addr:country": "IT", "addr:housenumber": "1", "addr:postcode": "20021", "addr:street": "Via Piave", "amenity": "cafe", "name": "Bar Piave", "wheelchair": "limited"}}, {"type": "node", "id": 981843897, "lat": 45.4600557, "lon": 9.0973696, "tags": {"amenity": "cafe"}}, {"type": "node", "id": 981869366, "lat": 45.4607657, "lon": 9.1095233, "tags": {"amenity": "cafe"}}, {"type": "node", "id": 981869367, "lat": 45.4606904, "lon": 9.1103225, "tags": {"amenity": "cafe"}}, {"type": "node", "id": 981869368, "lat": 45.4588015, "lon": 9.1026675, "tags": {"amenity": "cafe"}}, {"type": "node", "id": 981869372, "lat": 45.4608183, "lon": 9.1117495, "tags": {"addr:city": "Milano", "addr:housenumber": "212", "addr:postcode": "20152", "addr:street": "Via delle Forze Armate", "amenity": "cafe", "name": "Bar Valdagno"}}, {"type": "node", "id": 981869373, "lat": 45.4605926, "lon": 9.1125112, "tags": {"amenity": "cafe"}}, {"type": "node", "id": 981869376, "lat": 45.4586059, "lon": 9.105752, "tags": {"amenity": "cafe"}}, {"type": "node", "id": 981872296, "lat": 45.4639035, "lon": 9.0924912, "tags": {"addr:city": "Milano", "addr:housenumber": "56", "addr:postcode": "20153", "addr:street": "Via Francesco Rismondo", "amenity": "cafe", "name": "Tabaccheria Amico Bar Alex"}}, {"type": "node", "id": 981876603, "lat": 45.47873, "lon": 9.1172426, "tags": {"amenity": "cafe"}}, {"type": "node", "id": 981884268, "lat": 45.457684, "lon": 9.1219833, "tags": {"amenity": "fast_food", "cuisine": "pizza", "name": "Il Comignolo"}}, {"type": "node", "id": 981884276, "lat": 45.4604615, "lon": 9.1170718, "tags": {"addr:city": "Milano", "addr:housenumber": "179", "addr:postcode": "20152", "addr:street": "Via delle Forze Armate", "amenity": "cafe", "name": "J & M bar"}}, {"type": "node", "id": 981894168, "lat": 45.4580866, "lon": 9.0901523, "tags": {"amenity": "cafe"}}, {"type": "node", "id": 982614393, "lat": 45.5253622, "lon": 9.2656315}, {"type": "node", "id": 982614398, "lat": 45.525333, "lon": 9.2658676}, {"type": "node", "id": 982614411, "lat": 45.5252349, "lon": 9.2658429}, {"type": "node", "id": 982614435, "lat": 45.5252641, "lon": 9.2656068}, {"type": "node", "id": 983485050, "lat": 45.4638227, "lon": 9.0670621, "tags": {"amenity": "fast_food"}}, {"type": "node", "id": 983814573, "lat": 45.462567, "lon": 9.0879085, "tags": {"amenity": "cafe"}}, {"type": "node", "id": 983814574, "lat": 45.4613624, "lon": 9.0903421, "tags": {"addr:city": "Milano", "addr:country": "IT", "addr:housenumber": "410", "addr:postcode": "20152", "addr:street": "Via delle Forze Armate", "amenity": "cafe", "name": "Dada Bar", "website": "https://www.facebook.com/dadabaggio/"}}, {"type": "node", "id": 983814576, "lat": 45.4608288, "lon": 9.0937235, "tags": {"amenity": "cafe", "name": "Da Carlo"}}, {"type": "node", "id": 983814602, "lat": 45.4657404, "lon": 9.1365998, "tags": {"addr:city": "Milano", "addr:housenumber": "2", "addr:postcode": "20146", "addr:street": "Piazzale Siena", "air_conditioning": "yes", "amenity": "cafe", "bar": "yes", "name": "Bar Siena", "opening_hours": "Mo-Sa 06:30-20:30, Su 07:30-13:30", "outdoor_seating": "yes", "payment:cash": "yes", "payment:credit_cards": "yes", "payment:debit_cards": "yes", "toilets": "yes"}}, {"type": "node", "id": 983814664, "lat": 45.4602155, "lon": 9.1122147, "tags": {"amenity": "cafe"}}, {"type": "node", "id": 984462971, "lat": 45.457518, "lon": 9.102485, "tags": {"amenity": "cafe"}}, {"type": "node", "id": 994967193, "lat": 45.4584293, "lon": 9.1488907, "tags": {"amenity": "cafe"}}, {"type": "node", "id": 995625522, "lat": 45.4629009, "lon": 9.0872921, "tags": {"amenity": "cafe", "check_date": "2024-07-09", "name": "Cris Bar"}}, {"type": "node", "id": 995625525, "lat": 45.4625096, "lon": 9.0870024, "tags": {"amenity": "cafe", "name": "Famil Bar"}}, {"type": "node", "id": 995632212, "lat": 45.4625474, "lon": 9.133686, "tags": {"amenity": "cafe", "name": "Bar Sorriso"}}, {"type": "node", "id": 995632213, "lat": 45.4626175, "lon": 9.1333419, "tags": {"amenity": "cafe", "name": "Bar Torrefazione"}}, {"type": "node", "id": 995632215, "lat": 45.464214, "lon": 9.1364892, "tags": {"amenity": "cafe"}}, {"type": "node", "id": 995633483, "lat": 45.4673931, "lon": 9.1522944, "tags": {"amenity": "pub"}}, {"type": "node", "id": 995633488, "lat": 45.4605945, "lon": 9.1088088, "tags": {"amenity": "fast_food", "cuisine": "pizza"}}, {"type": "node", "id": 998947327, "lat": 45.4606751, "lon": 9.0950499, "tags": {"amenity": "cafe", "name": "Chicchi e Grappoli"}}, {"type": "node", "id": 998947330, "lat": 45.4619138, "lon": 9.0937554, "tags": {"amenity": "fast_food", "name": "Istanbul Doner Kebab"}}, {"type": "node", "id": 998947334, "lat": 45.4649689, "lon": 9.0913924, "tags": {"amenity": "cafe", "name": "Bar Max"}}, {"type": "node", "id": 998947339, "lat": 45.4648485, "lon": 9.0908881, "tags": {"amenity": "cafe"}}, {"type": "node", "id": 998947359, "lat": 45.4600873, "lon": 9.098738, "tags": {"addr:city": "Milano", "addr:housenumber": "326", "addr:postcode": "20152", "addr:street": "Via delle Forze Armate", "amenity": "fast_food", "cuisine": "kebab", "name": "Milano Kebap House"}}, {"type": "node", "id": 998947362, "lat": 45.4601701, "lon": 9.0982632, "tags": {"amenity": "cafe"}}, {"type": "node", "id": 998947370, "lat": 45.4609803, "lon": 9.0942818, "tags": {"addr:city": "Milano", "addr:housenumber": "2", "addr:postcode": "20152", "addr:street": "Via Francesco Rismondo", "amenity": "cafe", "name": "My Coffee Bar"}}, {"type": "node", "id": 998957026, "lat": 45.4597741, "lon": 9.0948883, "tags": {"amenity": "cafe"}}, {"type": "node", "id": 1002628831, "lat": 45.4938763, "lon": 9.1848747, "tags": {"addr:city": "Milano", "addr:housenumber": "71", "addr:street": "Via Carlo Farini", "amenity": "cafe", "check_date": "2025-09-13", "contact:phone": "+39 02 6687620", "name": "Small Caf\u00e9", "operator": "Small Caf\u00e9 di Mao Guangliang", "ref:vatin": "IT05909671215", "wheelchair": "no", "wikidata": "Q106633216"}}, {"type": "node", "id": 1003136479, "lat": 45.4726581, "lon": 9.1429735, "tags": {"addr:city": "Milano", "addr:housenumber": "8", "addr:postcode": "20148", "addr:street": "Via Daniele Ricciarelli", "amenity": "pub", "name": "Shatar Pub", "phone": "+393662528078", "website": "http://www.shatarpub.com"}}, {"type": "node", "id": 1012565524, "lat": 45.4294943, "lon": 9.2646216, "tags": {"amenity": "cafe", "name": "Bar Kennedy"}}, {"type": "node", "id": 1022928291, "lat": 45.5189722, "lon": 9.0833164}, {"type": "node", "id": 1022928375, "lat": 45.5190424, "lon": 9.082852}, {"type": "node", "id": 1022928700, "lat": 45.5189739, "lon": 9.0828569}, {"type": "node", "id": 1022928840, "lat": 45.5190442, "lon": 9.0830451}, {"type": "node", "id": 1022929348, "lat": 45.518777, "lon": 9.083622}, {"type": "node", "id": 1022929930, "lat": 45.5187324, "lon": 9.0835389}, {"type": "node", "id": 1022930143, "lat": 45.5189071, "lon": 9.0834509}, {"type": "node", "id": 1022930812, "lat": 45.5188044, "lon": 9.083622}, {"type": "node", "id": 1022931065, "lat": 45.5190185, "lon": 9.0831869}, {"type": "node", "id": 1029645004, "lat": 45.4690024, "lon": 9.1847868, "tags": {"amenity": "cafe", "name": "Good Fellas"}}, {"type": "node", "id": 1036264326, "lat": 45.5595548, "lon": 9.2138155, "tags": {"amenity": "cafe", "name": "Caf\u00e8 Dafne", "source": "survey"}}, {"type": "node", "id": 1036264344, "lat": 45.5597632, "lon": 9.2139778, "tags": {"amenity": "cafe", "description": "caffetteria, tabacchi, biglietti atm, superenalotto, lotto", "name": "Caffetteria Ribot", "source": "survey"}}, {"type": "node", "id": 1036264366, "lat": 45.5595969, "lon": 9.2137944, "tags": {"amenity": "fast_food", "cuisine": "pizza", "name": "Med & Lory pizzeria d'asporto", "phone": "+39 02 6184631", "source": "survey"}}, {"type": "node", "id": 1057051965, "lat": 45.4485224, "lon": 9.1604106, "tags": {"addr:city": "Milano", "addr:housenumber": "113", "addr:postcode": "20143", "addr:street": "Ripa di Porta Ticinese", "amenity": "bar", "name": "R113 Ripa's Drink"}}, {"type": "node", "id": 1059124751, "lat": 45.4859466, "lon": 9.2298942, "tags": {"amenity": "bar", "name": "Albatros"}}, {"type": "node", "id": 1059165752, "lat": 45.4231932, "lon": 9.2658149, "tags": {"addr:city": "San Donato Milanese", "addr:postcode": "20097", "addr:street": "Via Alfonsine", "amenity": "cafe", "name": "Bar Azalea"}}, {"type": "node", "id": 1061669441, "lat": 45.5682113, "lon": 9.1649, "tags": {"amenity": "bar", "name": "Bar Commercio"}}, {"type": "node", "id": 1080998823, "lat": 45.5435624, "lon": 9.1855965, "tags": {"amenity": "fast_food", "cuisine": "pizza", "description": "pizzeria d'asporto", "name": "Pizza Tris", "phone": "+39 02 61420038", "source": "bing, survey"}}, {"type": "node", "id": 1082047433, "lat": 45.4244146, "lon": 9.2622205, "tags": {"addr:city": "San Donato Milanese", "addr:postcode": "20097", "addr:street": "Via Piadena", "amenity": "cafe", "name": "Manu Bar"}}, {"type": "node", "id": 1084586395, "lat": 45.5420181, "lon": 9.1728936, "tags": {"amenity": "cafe", "name": "Bar Portici", "source": "bing, survey"}}, {"type": "node", "id": 1084586470, "lat": 45.5422003, "lon": 9.1729539, "tags": {"addr:city": "Cormano", "addr:housenumber": "12", "addr:postcode": "20032", "addr:street": "Via Caduti della Libert\u00e0", "amenity": "cafe", "name": "Moorea Caf\u00e8", "source": "bing, survey"}}, {"type": "node", "id": 1086848520, "lat": 45.5404866, "lon": 9.1702121, "tags": {"amenity": "cafe", "cuisine": "ice_cream", "description": "Pasticceria, Caffetteria, Gelateria", "name": "Mino", "shop": "confectionery", "source": "bing, survey"}}, {"type": "node", "id": 1086848854, "lat": 45.5412833, "lon": 9.1700524, "tags": {"amenity": "cafe", "cuisine": "ice_cream", "name": "Nada Mascaf\u00e8", "source": "bing, survey"}}, {"type": "node", "id": 1088119579, "lat": 45.4426659, "lon": 9.1135697, "tags": {"amenity": "cafe", "name": "Bonsai"}}, {"type": "node", "id": 1088119581, "lat": 45.4429213, "lon": 9.1140646, "tags": {"addr:city": "Corsico", "addr:housenumber": "31", "addr:postcode": "20152", "addr:street": "Via Sebastiano Caboto", "amenity": "cafe", "name": "Pasticceria Bonavetti", "outdoor_seating": "no", "phone": "+39 024474516", "website": "https://www.pasticceriabonavetti.it/"}}, {"type": "node", "id": 1088227262, "lat": 45.5391782, "lon": 9.1669274, "tags": {"amenity": "cafe", "name": "Bar lo Spuntino", "source": "bing, survey"}}, {"type": "node", "id": 1097844185, "lat": 45.4766389, "lon": 9.2687806, "tags": {"amenity": "bar"}}, {"type": "node", "id": 1104308424, "lat": 45.5636833, "lon": 9.1618967, "tags": {"addr:city": "Paderno Dugnano", "addr:country": "IT", "addr:housenumber": "89", "addr:postcode": "20037", "addr:street": "Via Roma", "amenity": "ice_cream", "name": "Romanitica", "phone": "+39 02 99043439"}}, {"type": "node", "id": 1119024760, "lat": 45.4421086, "lon": 9.2304175, "tags": {"amenity": "cafe", "name": "Caff\u00e8 caviglia"}}, {"type": "node", "id": 1119388417, "lat": 45.5422186, "lon": 9.175136, "tags": {"amenity": "cafe", "description": "Bar", "name": "New Caf\u00e8", "source": "bing, survey"}}, {"type": "node", "id": 1119388445, "lat": 45.5428654, "lon": 9.1753546, "tags": {"amenity": "fast_food", "cuisine": "pizza", "description": "Pizzerai d'asporto, consegna a domicilio", "name": "Da Pipo", "phone": "+39 02 66303222", "source": "bing, survey"}}, {"type": "node", "id": 1119388464, "lat": 45.5430457, "lon": 9.1754916, "tags": {"amenity": "cafe", "betting": "yes", "description": "Bar Fortunelli Caffetteria, paninoteca insalateria; tabacchi e valori bollati; ricevitoria lotto, totocalcio, sisal", "lottery": "yes", "name": "Bar Fortunelli", "source": "bing, survey", "stamps": "yes", "tobacco": "yes"}}, {"type": "node", "id": 1119444491, "lat": 45.4560079, "lon": 9.181779, "tags": {"addr:city": "Milano", "addr:country": "IT", "addr:housenumber": "14", "addr:postcode": "20123", "addr:street": "Via Vetere", "amenity": "cafe", "diet:vegan": "yes", "diet:vegetarian": "yes", "indoor_seating": "yes", "name": "Nowhere", "opening_hours": "Tu-Fr 08:30-16:00; Sa,Su 09:00-16:00; Mo off", "toilets": "yes", "website": "https://nowherecoffeeroasters.com"}}, {"type": "node", "id": 1122407309, "lat": 45.4603678, "lon": 9.1080434, "tags": {"amenity": "cafe", "wifi": "no"}}, {"type": "node", "id": 1122714479, "lat": 45.5423725, "lon": 9.1703189, "tags": {"amenity": "cafe", "description": "lotto, totocalcio", "gambling": "yes", "lottery": "yes", "name": "Bar New Vecchia Torre", "source": "bing, survey"}}, {"type": "node", "id": 1127231182, "lat": 45.5388101, "lon": 9.1651004, "tags": {"amenity": "cafe", "description": "bar, tabacchi e valori bollati, lotto, superenalotto", "lottery": "yes", "name": "Bar Charlot", "source": "bing, survey", "stamps": "yes", "tobacco": "yes"}}, {"type": "node", "id": 1127231194, "lat": 45.5384701, "lon": 9.1642382, "tags": {"amenity": "fast_food", "cuisine": "pizza;kebab", "description": "Pizzeria d'asporto con forno a legan, anche a domicilio", "name": "Charlie Brown 2", "phone": "+39 02 66301864", "source": "survey"}}, {"type": "node", "id": 1127231304, "lat": 45.5386095, "lon": 9.1636664, "tags": {"amenity": "cafe", "betting": "yes", "description": "Bar, caff\u00e8, tavola fredda, totocalcio", "name": "Bar Florida", "source": "bing, survey"}}, {"type": "node", "id": 1128409798, "lat": 45.5396831, "lon": 9.1589878, "tags": {"amenity": "cafe", "betting": "yes", "description": "Caffetteria, tabacchi, lotto, tris, totocalcio", "name": "Xavier Bar", "source": "bing, survey", "tobacco": "yes"}}, {"type": "node", "id": 1131197719, "lat": 45.542928, "lon": 9.1627763, "tags": {"amenity": "cafe", "name": "Bar del Centro", "source": "bing, survey"}}, {"type": "node", "id": 1133055309, "lat": 45.5447106, "lon": 9.1697611, "tags": {"amenity": "cafe", "description": "bar, paninoteca, birreria", "name": "Bar Amazonia", "source": "survey"}}, {"type": "node", "id": 1133055384, "lat": 45.5440188, "lon": 9.168124, "tags": {"amenity": "cafe", "betting": "yes", "description": "Bar Tabacchi antica privativa, punto snai, lotto, rivendita di tabacchi", "lottery": "yes", "name": "Bar Antica Privativa", "source": "survey", "tobacco": "yes"}}, {"type": "node", "id": 1133055450, "lat": 45.5447747, "lon": 9.1699844, "tags": {"amenity": "ice_cream", "name": "Gelateria Pistacchio", "source": "survey"}}, {"type": "node", "id": 1134691894, "lat": 45.5432384, "lon": 9.1720296, "tags": {"amenity": "cafe", "description": "tavola fredda, bar, caffetteria", "name": "Defendemos la Alegria", "source": "bing, survey"}}, {"type": "node", "id": 1138859879, "lat": 45.5075977, "lon": 9.2043976, "tags": {"alt_name": "Punto 3", "amenity": "cafe", "indoor_seating": "yes", "name": "Svapo web", "outdoor_seating": "no", "tobacco": "yes", "wheelchair": "no"}}, {"type": "node", "id": 1149164117, "lat": 45.5025497, "lon": 9.2244785, "tags": {"addr:city": "Milano", "addr:country": "IT", "addr:housenumber": "34", "addr:postcode": "20127", "addr:street": "Via Policarpo Petrocchi", "amenity": "bar", "name": "Bar Dolomiti"}}, {"type": "node", "id": 1149164147, "lat": 45.5033336, "lon": 9.224111, "tags": {"addr:city": "Milano", "addr:country": "IT", "addr:housenumber": "11", "addr:postcode": "20127", "addr:street": "Via Dolomiti", "amenity": "bar", "name": "Snoopy Bar 2"}}, {"type": "node", "id": 1151783985, "lat": 45.4604309, "lon": 9.1574839, "tags": {"amenity": "bar", "name": "ToTap Bar", "source": "UDB60"}}, {"type": "node", "id": 1171155336, "lat": 45.4783641, "lon": 9.2028489, "tags": {"amenity": "cafe", "name": "Caff\u00e8 Milani"}}, {"type": "node", "id": 1178997667, "lat": 45.4994326, "lon": 9.2854642, "tags": {"amenity": "bar", "name": "caff\u00e8 del teatro", "opening_hours": "Tu-Su"}}, {"type": "node", "id": 1179315734, "lat": 45.4916738, "lon": 9.1887287, "tags": {"amenity": "bar", "name": "Flute bar Milano"}}, {"type": "node", "id": 1189928760, "lat": 45.483525, "lon": 9.1656387, "tags": {"amenity": "fast_food", "cuisine": "kebab", "name": "Pizzeria Kebab kohky"}}, {"type": "node", "id": 1189928787, "lat": 45.483215, "lon": 9.165255, "tags": {"amenity": "fast_food", "cuisine": "kebab", "name": "Turkish kebap"}}, {"type": "node", "id": 1189928796, "lat": 45.4839367, "lon": 9.1640319, "tags": {"addr:city": "Milano", "addr:country": "IT", "addr:housenumber": "38", "addr:postcode": "20154", "addr:street": "Via Piero della Francesca", "amenity": "bar", "name": "Lost in Town", "website": "http://www.lostintown-milano.com/"}}, {"type": "node", "id": 1200897033, "lat": 45.541885, "lon": 9.3126477, "tags": {"amenity": "bar", "name": "Samsara"}}, {"type": "node", "id": 1205471513, "lat": 45.5709311, "lon": 9.1734556, "tags": {"amenity": "bar", "name": "Bar Magie", "wheelchair": "limited"}}, {"type": "node", "id": 1205497840, "lat": 45.5668843, "lon": 9.1592825, "tags": {"addr:city": "Paderno Dugnano", "addr:housenumber": "4", "addr:postcode": "20037", "addr:street": "Piazza della Divina Commedia", "amenity": "cafe", "name": "Caff\u00e9 Letterario", "phone": "+39029101504", "website": "https://caffeletterariopaderno.it/", "website:menu": "https://caffeletterariopaderno.it/menu/"}}, {"type": "node", "id": 1238567861, "lat": 45.5235523, "lon": 9.2118257, "tags": {"amenity": "bar", "name": "Perch\u00e9 no?"}}, {"type": "node", "id": 1253686169, "lat": 45.5398233, "lon": 9.28619, "tags": {"amenity": "fast_food", "brand": "McDonald's", "brand:wikidata": "Q38076", "cuisine": "burger", "name": "McDonald's", "operator": "McDonald's", "takeaway": "yes"}}, {"type": "node", "id": 1253686187, "lat": 45.5396121, "lon": 9.2867979, "tags": {"amenity": "fast_food", "brand": "McDonald's", "brand:wikidata": "Q38076", "brand:wikipedia": "en:McDonald's", "cuisine": "burger", "name": "McDonald's", "operator": "McDonald's", "takeaway": "yes"}}, {"type": "node", "id": 1253686188, "lat": 45.547436, "lon": 9.2927504, "tags": {"amenity": "bar", "name": "Corner Bar"}}, {"type": "node", "id": 1271562368, "lat": 45.4677603, "lon": 9.1870275, "tags": {"addr:city": "Milano", "addr:housenumber": "4", "addr:street": "Piazzetta Maurilio Bossi", "amenity": "cafe", "name": "Bar Dei Bossi", "wheelchair": "yes"}}, {"type": "node", "id": 1272557408, "lat": 45.4507477, "lon": 9.1970381, "tags": {"amenity": "bar", "name": "Bar 2"}}, {"type": "node", "id": 1274872667, "lat": 45.4663902, "lon": 9.1889607, "tags": {"amenity": "fast_food", "brand": "La Piadineria", "brand:wikidata": "Q108195414", "check_date": "2025-09-24", "cuisine": "piadina", "diet:vegetarian": "yes", "indoor_seating": "yes", "name": "La Piadineria", "opening_hours": "Mo-Su 11:30-21:00", "outdoor_seating": "no", "takeaway": "yes", "wheelchair": "no"}}, {"type": "node", "id": 1277337394, "lat": 45.4434837, "lon": 9.1390721, "tags": {"amenity": "cafe", "name": "Bar Chicco"}}, {"type": "node", "id": 1285244654, "lat": 45.4735526, "lon": 9.1775313, "tags": {"addr:city": "Milano", "addr:housenumber": "4", "addr:postcode": "20121", "addr:street": "Viale Ibsen", "amenity": "bar", "contact:facebook": "barbiancomilano", "contact:instagram": "barbiancomilano", "contact:phone": "+39 02 8699 2026", "name": "Bar Bianco", "opening_hours": "Mo-Su 09:00-22:00", "operator": "Bianco S.r.l.", "ref:vatin": "IT04378320966", "website": "https://www.barbiancomilano.com/", "wheelchair": "yes", "wifi": "no", "wikidata": "Q18222706", "wikimedia_commons": "Category:Bar Bianco (Milan)", "wikipedia": "it:Bar Bianco"}}, {"type": "node", "id": 1300766855, "lat": 45.4945545, "lon": 9.2194549, "tags": {"amenity": "cafe", "name": "Caff\u00e8 Milano"}}, {"type": "node", "id": 1306217742, "lat": 45.4591129, "lon": 9.1821683, "tags": {"amenity": "bar", "name": "Cheese"}}, {"type": "node", "id": 1341080866, "lat": 45.4587669, "lon": 9.0417518, "tags": {"addr:city": "Cusago", "addr:country": "IT", "addr:housenumber": "9", "addr:postcode": "20090", "addr:province": "Milano", "addr:street": "Via Guglielmo Marconi", "amenity": "cafe", "name": "Nuova Osteria e Posteria Monzoro"}}, {"type": "node", "id": 1341157401, "lat": 45.4467647, "lon": 9.0332529, "tags": {"addr:city": "Cusago", "addr:housenumber": "15", "addr:postcode": "20090", "addr:street": "Piazza Madonnina", "amenity": "bar"}}, {"type": "node", "id": 1341157438, "lat": 45.4480246, "lon": 9.0337111, "tags": {"amenity": "fast_food", "cuisine": "pizza", "name": "Pizzeria La Favola"}}, {"type": "node", "id": 1341239232, "lat": 45.4392814, "lon": 9.067759, "tags": {"amenity": "cafe"}}, {"type": "node", "id": 1345750670, "lat": 45.5174148, "lon": 9.1716099}, {"type": "node", "id": 1345750671, "lat": 45.5175224, "lon": 9.1715464}, {"type": "node", "id": 1345750673, "lat": 45.5175699, "lon": 9.1717028}, {"type": "node", "id": 1345750678, "lat": 45.5174647, "lon": 9.1717695}, {"type": "node", "id": 1381690678, "lat": 45.4596949, "lon": 9.182179, "tags": {"amenity": "bar", "name": "20 - Twenty"}}, {"type": "node", "id": 1381690680, "lat": 45.4594315, "lon": 9.182812, "tags": {"addr:housenumber": "5", "addr:street": "Via San Vito", "amenity": "bar", "check_date": "2025-09-04", "contact:facebook": "https://www.facebook.com/lahorafelizmilano/", "name": "La Hora Feliz"}}, {"type": "node", "id": 1396580530, "lat": 45.3907153, "lon": 9.17559, "tags": {"amenity": "fast_food", "brand": "McDonald's", "brand:wikidata": "Q38076", "brand:wikipedia": "en:McDonald's", "cuisine": "burger", "name": "McDonald's", "takeaway": "yes", "wheelchair": "yes"}}, {"type": "node", "id": 1404846503, "lat": 45.4860595, "lon": 9.0533794, "tags": {"amenity": "bar", "name": "Central Bar"}}, {"type": "node", "id": 1404846506, "lat": 45.4863124, "lon": 9.0540432, "tags": {"amenity": "bar", "name": "Nico's Bar"}}, {"type": "node", "id": 1427236878, "lat": 45.4858138, "lon": 9.2375165, "tags": {"amenity": "cafe", "level": "0", "name": "il Punto Dolce Salato", "opening_hours": "Mo-Fr 06:00-19:00; Sa 07:00-18:30; Su 08:00-18:30", "payment:bancomat": "yes", "payment:cash": "yes", "payment:maestro": "yes", "payment:mastercard": "yes", "payment:visa": "yes", "payment:visa_electron": "yes"}}, {"type": "node", "id": 1432147022, "lat": 45.5422641, "lon": 9.1892362, "tags": {"amenity": "bar", "name": "Crazy"}}, {"type": "node", "id": 1432147024, "lat": 45.5427534, "lon": 9.1904962, "tags": {"amenity": "bar", "name": "Fantasy"}}, {"type": "node", "id": 1432147030, "lat": 45.5419241, "lon": 9.1888875, "tags": {"addr:city": "Bresso", "addr:housenumber": "3", "addr:postcode": "20091", "addr:street": "Via Vittorio Veneto", "amenity": "bar", "name": "Ippocampo"}}, {"type": "node", "id": 1432147032, "lat": 45.5405817, "lon": 9.1888539, "tags": {"amenity": "bar"}}, {"type": "node", "id": 1432153732, "lat": 45.5383084, "lon": 9.1906744, "tags": {"amenity": "bar", "name": "Sant'Ambrogio"}}, {"type": "node", "id": 1432153733, "lat": 45.5379533, "lon": 9.1909318, "tags": {"amenity": "bar", "name": "Madama Caf\u00e8"}}, {"type": "node", "id": 1464812315, "lat": 45.4864207, "lon": 9.2014242, "tags": {"amenity": "bar", "name": "New York Lounge"}}, {"type": "node", "id": 1464812316, "lat": 45.4867231, "lon": 9.201601, "tags": {"amenity": "bar", "name": "Martin's Bar"}}, {"type": "node", "id": 1471896701, "lat": 45.4852293, "lon": 9.1990612, "tags": {"addr:city": "Milano", "addr:country": "IT", "addr:housenumber": "28", "addr:postcode": "20124", "addr:street": "Via Gustavo Fara", "amenity": "cafe", "name": "Caff\u00e8 Petrarca", "wheelchair": "limited"}}, {"type": "node", "id": 1476116760, "lat": 45.436159, "lon": 9.2406837, "tags": {"addr:city": "Milano", "addr:postcode": "20138", "addr:street": "Via Bruno Cassinari", "amenity": "fast_food", "cuisine": "pizza", "name": "Kimos Pizza", "wheelchair": "yes"}}, {"type": "node", "id": 1476116763, "lat": 45.4358912, "lon": 9.2402861, "tags": {"amenity": "bar", "name": "Carpe Diem", "wheelchair": "yes"}}, {"type": "node", "id": 1476116765, "lat": 45.4380288, "lon": 9.2436236, "tags": {"addr:city": "Milano", "addr:housenumber": "25", "addr:postcode": "20138", "addr:street": "Via Bruno Cassinari", "amenity": "pub", "email": "nuovamilano09cafe@yahoo.it", "indoor_seating": "yes", "name": "Nuova Milano 09", "opening_hours": "Tu-Th 11:00-14:30,18:00-01:00, Fr 11:00-14:30,18:00-02:00, Sa 11:00-14:30,17:00-02:00, Su 11:00-14:30,17:00-01:00", "outdoor_seating": "yes", "phone": "+39 02 5162 1588", "wheelchair": "yes"}}, {"type": "node", "id": 1476116766, "lat": 45.4369113, "lon": 9.2418632, "tags": {"amenity": "cafe", "name": "Caff\u00e8 Mood", "wheelchair": "yes"}}, {"type": "node", "id": 1497233515, "lat": 45.4404099, "lon": 9.1488014}, {"type": "node", "id": 1497233517, "lat": 45.4404835, "lon": 9.1489629}, {"type": "node", "id": 1497233519, "lat": 45.4405431, "lon": 9.1486844}, {"type": "node", "id": 1497233520, "lat": 45.44057, "lon": 9.148744}, {"type": "node", "id": 1497233532, "lat": 45.4405914, "lon": 9.1487257}, {"type": "node", "id": 1497233536, "lat": 45.4405822, "lon": 9.1488926}, {"type": "node", "id": 1497233537, "lat": 45.4405872, "lon": 9.148927}, {"type": "node", "id": 1497233538, "lat": 45.4406612, "lon": 9.1488532}, {"type": "node", "id": 1505013998, "lat": 45.5391875, "lon": 9.1768884, "tags": {"amenity": "bar"}}, {"type": "node", "id": 1505014003, "lat": 45.5385112, "lon": 9.1767999, "tags": {"amenity": "bar"}}, {"type": "node", "id": 1523170718, "lat": 45.5151171, "lon": 9.2130089, "tags": {"amenity": "bar", "indoor_seating": "yes", "name": "Caff\u00e8 Cinquecento", "opening_hours": "Mo-Su 07:00-24:00", "outdoor_seating": "yes", "wheelchair": "yes"}}, {"type": "node", "id": 1523171358, "lat": 45.5155043, "lon": 9.2115605, "tags": {"addr:city": "Milano", "addr:housenumber": "14", "addr:postcode": "20126", "addr:street": "Viale Piero e Alberto Pirelli", "amenity": "bar", "indoor_seating": "yes", "name": "Pan caf\u00e8", "opening_hours": "Mo-Sa 06:30-21:00", "outdoor_seating": "yes", "wheelchair": "yes"}}, {"type": "node", "id": 1525006570, "lat": 45.5198725, "lon": 9.1695316, "tags": {"addr:housenumber": "41", "addr:street": "Via Alessandro Astesani", "amenity": "cafe", "name": "Minas Caff\u00e8"}}, {"type": "node", "id": 1525006576, "lat": 45.5201239, "lon": 9.1706593, "tags": {"addr:street": "Via Vincenzo da Seregno", "amenity": "cafe", "name": "Non solo caff\u00e8"}}, {"type": "node", "id": 1525006591, "lat": 45.5207014, "lon": 9.1709253, "tags": {"addr:street": "Via Vincenzo da Seregno", "amenity": "cafe", "name": "Petit bar"}}, {"type": "node", "id": 1525006592, "lat": 45.5194489, "lon": 9.1701416, "tags": {"amenity": "cafe", "name": "Pixie & Dixie"}}, {"type": "node", "id": 1537428178, "lat": 45.4392043, "lon": 9.2162831, "tags": {"amenity": "cafe"}}, {"type": "node", "id": 1537428181, "lat": 45.4387658, "lon": 9.2161785, "tags": {"amenity": "cafe", "name": "Bar Lisi"}}, {"type": "node", "id": 1537428232, "lat": 45.4389314, "lon": 9.2161303, "tags": {"amenity": "cafe", "name": "Bar Tabacchi"}},